{"business_status":"OPERATIONAL","formatted_address":"8, 8/1-2 Ratchadaphisek Rd, Khlong Toei, Bangkok 10110, Thailand","geometry":{"location":{"lat":13.7353923,"lng":100.56065},"viewport":{"northeast":{"lat":13.73670942989272,"lng":100.5621641298927},"southwest":{"lat":13.73400977010728,"lng":100.5594644701073}}},"icon":"https://maps.gstatic.com/mapfiles/place_api/icons/v1/png_71/bar-71.png","icon_background_color":"#FF9E67","icon_mask_base_uri":"https://maps.gstatic.com/mapfiles/place_api/icons/v2/bar_pinlet","name":"Royal Queen Seeds Thailand","opening_hours":{"open_now":true},"photos":[{"height":720,"html_attributions":["\u003ca href=\"https://maps.google.com/maps/contrib/109187329694383886504\"\u003eA Google User\u003c/a\u003e"],"photo_reference":"AfLeUgMaIAFNJ9gDgvqXDODBcV1_uA82NVaXNLVUJdsSz2KFsKMyVqwE-JZt-c5pr1fGdPG7YsZauUUJa4vvyT3SuagrTxSuSohJp-c-PGOy_L2GvyWJQyJSUdnu694w-rL72TNd8qRiC1jZY98Mr_fDTsHFCIt5rARZisM1wXb08pTZ6YBW","width":1080}],"place_id":"ChIJ3b6U9_Gf4jARsauFlFMF3n8","plus_code":{"compound_code":"PHP6+57 Bangkok, Thailand","global_code":"7P52PHP6+57"},"rating":4.7,"reference":"ChIJ3b6U9_Gf4jARsauFlFMF3n8","types":["bar","cafe","restaurant","point_of_interest","food","establishment"],"user_ratings_total":141,"seller":"Verified Seller"}
{"business_status":"OPERATIONAL","formatted_address":"63 ถนน มเหสักข์ Suriya Wong, Bang Rak, Bangkok 10500, Thailand","geometry":{"location":{"lat":13.7249566,"lng":100.5191249},"viewport":{"northeast":{"lat":13.72629932989272,"lng":100.5204191298927},"southwest":{"lat":13.72359967010728,"lng":100.5177194701073}}},"icon":"https://maps.gstatic.com/mapfiles/place_api/icons/v1/png_71/shopping-71.png","icon_background_color":"#4B96F3","icon_mask_base_uri":"https://maps.gstatic.com/mapfiles/place_api/icons/v2/shopping_pinlet","name":"Grea8idea Dispensary","opening_hours":{"open_now":true},"photos":[{"height":1080,"html_attributions":["\u003ca href=\"https://maps.google.com/maps/contrib/112159817874759304745\"\u003eA Google User\u003c/a\u003e"],"photo_reference":"AfLeUgNzAlPHQTczCoBXdt7kMPPr1wBPbGHQrUcQmxml3szuQdxTBW-aw61_bYrMAJk3AcajnT2Us71i4APdxly4zaKRj4e8v4Of5pI8ppRLa1Z8OAF81f_nNAOxcTddCNww1hxba6PSWHMwc_6JHtU45laLahzEaN5xWg22EtB9mUI2l6JN","width":1920}],"place_id":"ChIJLaavCLGZ4jARr5TXXELI-Mw","plus_code":{"compound_code":"PGF9+XJBangkok,Thailand","global_code":"7P52PGF9+XJ"},"rating":5,"reference":"ChIJLaavCLGZ4jARr5TXXELI-Mw","types":["store","point_of_interest","establishment" ],"user_ratings_total":40,"seller":"Verified Seller"}
{"business_status":"OPERATIONAL","formatted_address":"of Spark Hotel, The Herb Club, G Floor, 599 Soi Rimkhlong Phaisingtoh, Klongtoei, Bangkok 10110, Thailand","geometry":{"location":{"lat":13.7242453,"lng":100.5615236},"viewport":{"northeast":{"lat":13.72558962989272,"lng":100.5629042298927},"southwest":{"lat":13.72288997010728,"lng":100.5602045701073}}},"icon":"https://maps.gstatic.com/mapfiles/place_api/icons/v1/png_71/shopping-71.png","icon_background_color":"#4B96F3","icon_mask_base_uri":"https://maps.gstatic.com/mapfiles/place_api/icons/v2/shopping_pinlet","name":"The Herb Club - THC Bangkok","opening_hours":{"open_now":true},"photos":[{"height":3870,"html_attributions":["<a href=\"https://maps.google.com/maps/contrib/117975154457018246436\">A Google User</a>"],"photo_reference":"AfLeUgOEEW6CPdE4tWDoUpBFuGOIF8eb-wfDGLtPSiEfPkBmaS7-W0UgFd2OE64aH2AalC7iTUr-bS6Kdl4TnAI2BKRboMTbQfRIAao0YdbUfmHfVUgp13t26Ss4SUr1wECC6isTdNy8RzISTmmehfflhzQA2upqBY9ZomXWDiWzpYI66E-A","width":5805}],"place_id":"ChIJLRYl26yf4jAR4zqxVvf10ZI","plus_code":{"compound_code":"PHF6+MJ Bangkok, Thailand","global_code":"7P52PHF6+MJ"},"rating":4.9,"reference":"ChIJLRYl26yf4jAR4zqxVvf10ZI","types":["point_of_interest","store","establishment"],"user_ratings_total":8,"seller":"Verified Seller"}
{"business_status":"OPERATIONAL","formatted_address":"of Spark Hotel, The Herb Club, G Floor, 599 Soi Rimkhlong Phaisingtoh, Klongtoei, Bangkok 10110, Thailand","geometry":{"location":{"lat":13.7242453,"lng":100.5615236},"viewport":{"northeast":{"lat":13.72558962989272,"lng":100.5629042298927},"southwest":{"lat":13.72288997010728,"lng":100.5602045701073}}},"icon":"https://maps.gstatic.com/mapfiles/place_api/icons/v1/png_71/shopping-71.png","icon_background_color":"#4B96F3","icon_mask_base_uri":"https://maps.gstatic.com/mapfiles/place_api/icons/v2/shopping_pinlet","name":"The Herb Club - THC Bangkok","opening_hours":{"open_now":false},"photos":[{"height":4000,"html_attributions":["<a href=\"https://maps.google.com/maps/contrib/117975154457018246436\">A Google User</a>"],"photo_reference":"AfLeUgPCxYDILKCI4SrMgyJNcu0zjkVe6qXl4zuO8DwScTFHhyo3zO7l9Cs-zzUGkQfd78pcB8_bD2rtX9ObM2em_tjEt5u_I8GGim4nJoPZzNF47jjl5KOiVtXRkpNkmZ1ee5i3F78ZgcgfKzowaBcQC20LqhIjpBlEfdvQGDvO3Ks2gnzZ","width":6000}],"place_id":"ChIJLRYl26yf4jAR4zqxVvf10ZI","plus_code":{"compound_code":"PHF6+MJ Bangkok, Thailand","global_code":"7P52PHF6+MJ"},"rating":4.9,"reference":"ChIJLRYl26yf4jAR4zqxVvf10ZI","types":["point_of_interest","store","establishment"],"user_ratings_total":8,"seller":"Verified Seller"}
{"business_status":"OPERATIONAL","formatted_address":"of Spark Hotel, The Herb Club, G Floor, 599 Soi Rimkhlong Phaisingtoh, Klongtoei, Bangkok 10110, Thailand","geometry":{"location":{"lat":13.7242453,"lng":100.5615236},"viewport":{"northeast":{"lat":13.72558962989272,"lng":100.5629042298927},"southwest":{"lat":13.72288997010728,"lng":100.5602045701073}}},"icon":"https://maps.gstatic.com/mapfiles/place_api/icons/v1/png_71/shopping-71.png","icon_background_color":"#4B96F3","icon_mask_base_uri":"https://maps.gstatic.com/mapfiles/place_api/icons/v2/shopping_pinlet","name":"The Herb Club - THC Bangkok","opening_hours":{"open_now":false},"photos":[{"height":1920,"html_attributions":["<a href=\"https://maps.google.com/maps/contrib/116900802599741720903\">Richard Francisco</a>"],"photo_reference":"AfLeUgMdp1jr1dU0kNMS3P1rse38XggZg_sUlQb91Q_batBPqnIBzczDUEEbh9OEystUqPz32HBAFu_RFOqqkWVx-0OcbvP0yMtfE8rKvxskVRJgx9P5QiAGIAg8Up--cGwzaYEEJzwPNiXNv9_GJFUTMuLama4fAmGTI-RmG3zA4W7QOe9P","width":2560}],"place_id":"ChIJLRYl26yf4jAR4zqxVvf10ZI","plus_code":{"compound_code":"PHF6+MJ Bangkok, Thailand","global_code":"7P52PHF6+MJ"},"rating":4.9,"reference":"ChIJLRYl26yf4jAR4zqxVvf10ZI","types":["store","point_of_interest","establishment"],"user_ratings_total":8,"seller":"Verified Seller"}
{"business_status":"OPERATIONAL","formatted_address":"Nana Hotel, Sukhumvit 4 Alley, Khwaeng Khlong Toei, Khlong Toei, Bangkok 10110, Thailand","geometry":{"location":{"lat":13.7415386,"lng":100.5529033},"viewport":{"northeast":{"lat":13.74288972989272,"lng":100.5542931298927},"southwest":{"lat":13.74019007010728,"lng":100.5515934701073}}},"icon":"https://maps.gstatic.com/mapfiles/place_api/icons/v1/png_71/shopping-71.png","icon_background_color":"#4B96F3","icon_mask_base_uri":"https://maps.gstatic.com/mapfiles/place_api/icons/v2/shopping_pinlet","name":"Thai Cannabis Club - Dispensary Nana / weed Nana","opening_hours":{"open_now":true},"photos":[{"height":4032,"html_attributions":["<a href=\"https://maps.google.com/maps/contrib/110868767658545272609\">A Google User</a>"],"photo_reference":"AfLeUgNr8TFgjcaiEYG0YboOXMOCqN5gefAe7jIes5YCDwV07Bic5Yyq6TxfRqOAGfOpI9psk9BoRPD-tVCyQ_ondYxp5l15MsldNgJy3LFSsbHNYURRSYpFObCCWGRXR3_eUMLCJk7QRv9vRmn-oFM5XlYADH5QysiZpOYxENvg9pZm66kl","width":3024}],"place_id":"ChIJR_BtKu-f4jARpt2GYqGleB4","plus_code":{"compound_code":"PHR3+J5 Bangkok, Thailand","global_code":"7P52PHR3+J5"},"rating":4.9,"reference":"ChIJR_BtKu-f4jARpt2GYqGleB4","types":["store","point_of_interest","establishment"],"user_ratings_total":324,"seller":"Verified Seller"}
{"business_status":"OPERATIONAL","formatted_address":"Soi Cowboy, Khlong Toei Nuea, Khet Watthana, Bangkok 10110, Thailand","geometry":{"location":{"lat":13.7370174,"lng":100.5627889},"viewport":{"northeast":{"lat":13.73834347989272,"lng":100.5641365798927},"southwest":{"lat":13.73564382010728,"lng":100.5614369201073}}},"icon":"https://maps.gstatic.com/mapfiles/place_api/icons/v1/png_71/shopping-71.png","icon_background_color":"#4B96F3","icon_mask_base_uri":"https://maps.gstatic.com/mapfiles/place_api/icons/v2/shopping_pinlet","name":"Thai Cannabis Club - Cowboy","opening_hours":{"open_now":true},"photos":[{"height":4080,"html_attributions":["<a href=\"https://maps.google.com/maps/contrib/108859876800868625145\">A Google User</a>"],"photo_reference":"AfLeUgNb0F2ELA1j2j-aqOAAaNq6awHNfKHHucbmGTL3MiwPkUbEBVGzrIaxMMH0yP8m1W51Fy9zlJwCi2woL6wvaQXt8vuPSCBqmgKPv5naiBuAQ2ik9RBnajqQEwLE0H39x2nrh5fxwSioWRdi4hywhIvckRo5QBB9-BktC4lBYeAJvvHY","width":3072}],"place_id":"ChIJ_6bvCZ2f4jARu7YS2LZQdmo","plus_code":{"compound_code":"PHP7+R4 Bangkok, Thailand","global_code":"7P52PHP7+R4"},"rating":5,"reference":"ChIJ_6bvCZ2f4jARu7YS2LZQdmo","types":["store","point_of_interest","establishment"],"user_ratings_total":66,"seller":"Verified Seller"}
{"business_status":"OPERATIONAL","formatted_address":"of Spark Hotel, The Herb Club, G Floor, 599 Soi Rimkhlong Phaisingtoh, Klongtoei, Bangkok 10110, Thailand","geometry":{"location":{"lat":13.7242453,"lng":100.5615236},"viewport":{"northeast":{"lat":13.72558962989272,"lng":100.5629042298927},"southwest":{"lat":13.72288997010728,"lng":100.5602045701073}}},"icon":"https://maps.gstatic.com/mapfiles/place_api/icons/v1/png_71/shopping-71.png","icon_background_color":"#4B96F3","icon_mask_base_uri":"https://maps.gstatic.com/mapfiles/place_api/icons/v2/shopping_pinlet","name":"The Herb Club - THC Bangkok","opening_hours":{"open_now":false},"photos":[{"height":3870,"html_attributions":["<a href=\"https://maps.google.com/maps/contrib/117975154457018246436\">A Google User</a>"],"photo_reference":"AfLeUgNXmwkHqwzr8vW87RR1OGkyGg03ualBKUg_d0YvRP_Y8hZX0DNnkMPw0ye0dZ4EvT9lcgDIUeOxvNt0F2HxnjqReWJw10gFmC_A-Vg8HBPBe4h7qrOXCl9094YucStFb0MOnUMG243XskRYwWo37Ktl5fUDg7_nDSncC8dESEVwgQID","width":5805}],"place_id":"ChIJLRYl26yf4jAR4zqxVvf10ZI","plus_code":{"compound_code":"PHF6+MJ Bangkok, Thailand","global_code":"7P52PHF6+MJ"},"rating":4.8,"reference":"ChIJLRYl26yf4jAR4zqxVvf10ZI","types":["point_of_interest","store","establishment"],"user_ratings_total":6,"seller":"Verified Seller"}
{"business_status":"OPERATIONAL","formatted_address":"Maison complex, 18 B1, Sukhumvit 4 Alley, Khlong Toei, Watthana, Bangkok 10110, Thailand","geometry":{"location":{"lat":13.7402641,"lng":100.5528716},"viewport":{"northeast":{"lat":13.74161747989272,"lng":100.5542997798927},"southwest":{"lat":13.73891782010728,"lng":100.5516001201073}}},"icon":"https://maps.gstatic.com/mapfiles/place_api/icons/v1/png_71/shopping-71.png","icon_background_color":"#4B96F3","icon_mask_base_uri":"https://maps.gstatic.com/mapfiles/place_api/icons/v2/shopping_pinlet","name":"Thai Cannabis Club - Soi 4","opening_hours":{"open_now":true},"photos":[{"height":3000,"html_attributions":["<a href=\"https://maps.google.com/maps/contrib/111613464933932914650\">A Google User</a>"],"photo_reference":"AfLeUgP8zMgkddHaPVlI6y7GJcD84e5o8w2lPw9WgqzjlbFTu3Whu03AVeZjeq_L6s98FluIN2rGsFVRCEt4zgcQJvmGuM-iUPM5De_CWGJw-VpUR-vdLtfn0Nq7ZDbfASZK6FGmxrnihE6N1YiIf3N305N3TICtoo9PHfgUCIhvg573AEA4","width":4000}],"place_id":"ChIJU4h6yVmf4jARN7psI2GewE4","plus_code":{"compound_code":"PHR3+44 Bangkok, Thailand","global_code":"7P52PHR3+44"},"rating":5,"reference":"ChIJU4h6yVmf4jARN7psI2GewE4","types":["store","point_of_interest","establishment"],"user_ratings_total":63,"seller":"Verified Seller"}
{"business_status":"OPERATIONAL","formatted_address":"58, 54 Soi Sathon 11 Yaek 5, Yannawa, Sathon, Bangkok 10120, Thailand","geometry":{"location":{"lat":13.7172849,"lng":100.5306555},"viewport":{"northeast":{"lat":13.71861172989272,"lng":100.5320030298927},"southwest":{"lat":13.71591207010728,"lng":100.5293033701073}}},"icon":"https://maps.gstatic.com/mapfiles/place_api/icons/v1/png_71/shopping-71.png","icon_background_color":"#4B96F3","icon_mask_base_uri":"https://maps.gstatic.com/mapfiles/place_api/icons/v2/shopping_pinlet","name":"Fat Buds Weed Shop​ ​Sathorn (Cannabis Dispensary)","opening_hours":{"open_now":false},"photos":[{"height":2400,"html_attributions":["<a href=\"https://maps.google.com/maps/contrib/106094892616157577149\">A Google User</a>"],"photo_reference":"AfLeUgMwc2xRmmgmOcIPbnqkD2NRTeqbUuY9Iv60THBeJEYZwQnMoWNvnc7srNckem16y0KIiMKlA-1Y08IOqOBDZraEHE-ffifDy7-4CYkcmEq3DjNpLbyVTSYGCgl1_mds7nhFd4EzgLMN210detiifQzfPhh9BhXI3K73F-Z7PbfpwqqN","width":1920}],"place_id":"ChIJae6AyX-Z4jARSSLiQC5ViGQ","plus_code":{"compound_code":"PG8J+W7 Bangkok, Thailand","global_code":"7P52PG8J+W7"},"rating":4.9,"reference":"ChIJae6AyX-Z4jARSSLiQC5ViGQ","types":["store","point_of_interest","establishment"],"user_ratings_total":67}
{"business_status":"OPERATIONAL","formatted_address":"Soi Sukhumvit 5, Khwaeng Khlong Toei Nuea, Khet Watthana, Bangkok 10110, Thailand","geometry":{"location":{"lat":13.7415891,"lng":100.5542182},"viewport":{"northeast":{"lat":13.74290277989272,"lng":100.5555384298927},"southwest":{"lat":13.74020312010728,"lng":100.5528387701073}}},"icon":"https://maps.gstatic.com/mapfiles/place_api/icons/v1/png_71/shopping-71.png","icon_background_color":"#4B96F3","icon_mask_base_uri":"https://maps.gstatic.com/mapfiles/place_api/icons/v2/shopping_pinlet","name":"Wonderland Bangkok","opening_hours":{"open_now":true},"photos":[{"height":3024,"html_attributions":["<a href=\"https://maps.google.com/maps/contrib/100732656930791181976\">A Google User</a>"],"photo_reference":"AfLeUgNEW93_7scHfhqEMGNY4c72Tk5H3x4B49JToMbkQJnLiQvNqcGUt0l8ELmZtSk-phb3BM4yUg-p6LElMQBY8JjGV6nHtGaJz1aWBm4NnT67e4uODqLukiszUMpeycQafmdZzaEkt9329XkQDA71AC4MLpocQrAT3s0fpMS6C150uZOi","width":4032}],"place_id":"ChIJYXGT11Cf4jAR0GdMJyZwyAU","plus_code":{"compound_code":"PHR3+JM Bangkok, Thailand","global_code":"7P52PHR3+JM"},"rating":4.8,"reference":"ChIJYXGT11Cf4jAR0GdMJyZwyAU","types":["store","point_of_interest","establishment"],"user_ratings_total":34}
{"business_status":"OPERATIONAL","formatted_address":"12/3 Soi Sukhumvit 22, Khwaeng Khlong Toei, Khlong Toei, Bangkok 10110, Thailand","geometry":{"location":{"lat":13.7321093,"lng":100.5650199},"viewport":{"northeast":{"lat":13.73345847989272,"lng":100.5664127798927},"southwest":{"lat":13.73075882010728,"lng":100.5637131201073}}},"icon":"https://maps.gstatic.com/mapfiles/place_api/icons/v1/png_71/shopping-71.png","icon_background_color":"#4B96F3","icon_mask_base_uri":"https://maps.gstatic.com/mapfiles/place_api/icons/v2/shopping_pinlet","name":"Four Twenty Dispensary - Sukhumvit 22","opening_hours":{"open_now":true},"photos":[{"height":4032,"html_attributions":["<a href=\"https://maps.google.com/maps/contrib/109208226330457750872\">A Google User</a>"],"photo_reference":"AfLeUgPxwB9NV3krCuBh26wjdUQhBNRETC5rFH_jBJShBjg_9Fbv2DSNkKP3pe45AjTqhK9W5GULfAFVQznDbeWWrIVGPdXbs9yqCKRhyxAaGXRsoNGA5_3CgH7VQRqj55OjrzzYL1O5Q_xiZ2a2kUg_wvypIvLlQAJLGmJjU3Fg5WNhsMM","width":3024}],"place_id":"ChIJFzWWse2f4jARkkh6fajAT1g","plus_code":{"compound_code":"PHJ8+R2 Bangkok, Thailand","global_code":"7P52PHJ8+R2"},"rating":5,"reference":"ChIJFzWWse2f4jARkkh6fajAT1g","types":["store","point_of_interest","establishment"],"user_ratings_total":689}
{"business_status":"OPERATIONAL","formatted_address":"37 25 Patpong 2 Alley, Surawong Rd, Suriya Wong, Bang Rak, Bangkok 10500, Thailand","geometry":{"location":{"lat":13.7295398,"lng":100.5319405},"viewport":{"northeast":{"lat":13.73088247989272,"lng":100.5332746298927},"southwest":{"lat":13.72818282010728,"lng":100.5305749701073}}},"icon":"https://maps.gstatic.com/mapfiles/place_api/icons/v1/png_71/shopping-71.png","icon_background_color":"#4B96F3","icon_mask_base_uri":"https://maps.gstatic.com/mapfiles/place_api/icons/v2/shopping_pinlet","name":"Patpong Marijuana","opening_hours":{"open_now":true},"photos":[{"height":3024,"html_attributions":["<a href=\"https://maps.google.com/maps/contrib/116738183685308674492\">A Google User</a>"],"photo_reference":"AfLeUgPai4YO7ygdKs0snlT-RTi8HXTcdw4qgIj1NBU8jZ1tL7hhrdseLtI1iPva0yUpsTSBeysowkDlf7ba3BipNMKAbQ6kZHp0ehRXdgsBOPPO5H4GO6BNt6ZuIFGaR3xOUdpLVMyyPz2pPt4Vp1fjdfg9MmtVP1_D7RW3z5VIi6SRZabT","width":4032}],"place_id":"ChIJRzfGDdKf4jAR4JiH3SesIhA","plus_code":{"compound_code":"PGHJ+RQ Bangkok, Thailand","global_code":"7P52PGHJ+RQ"},"rating":4,"reference":"ChIJRzfGDdKf4jAR4JiH3SesIhA","types":["store","point_of_interest","establishment"],"user_ratings_total":3}
{"business_status":"OPERATIONAL","formatted_address":"106 Sukhumvit Road, Khwaeng Khlong Toei, Khlong Toei, Bangkok 10110, Thailand","geometry":{"location":{"lat":13.7418767,"lng":100.553136},"viewport":{"northeast":{"lat":13.74328357989272,"lng":100.5545131298927},"southwest":{"lat":13.74058392010728,"lng":100.5518134701073}}},"icon":"https://maps.gstatic.com/mapfiles/place_api/icons/v1/png_71/shopping-71.png","icon_background_color":"#4B96F3","icon_mask_base_uri":"https://maps.gstatic.com/mapfiles/place_api/icons/v2/shopping_pinlet","name":"Mary Jane Bangkok","opening_hours":{"open_now":true},"photos":[{"height":2736,"html_attributions":["<a href=\"https://maps.google.com/maps/contrib/106600907170642783235\">A Google User</a>"],"photo_reference":"AfLeUgMpAU-Bh_knT4BhkX93igB9i7pdVAPJ1ZOqYSQpu_u78iG7aFc7-FrUtsGsvwo_Sapf3kl6nu4LWWfryDqRfG8KYRgJARMKiYAyl4GHtGR7nqnzof1Qh64O8368aPJkcwYsRp1D3StJllim2MLngqhmZe1aCQqzM-jyASJblXMr2tSZ","width":3648}],"place_id":"ChIJeSWX16ef4jARjcGod7dDu0M","plus_code":{"compound_code":"PHR3+Q7 Bangkok, Thailand","global_code":"7P52PHR3+Q7"},"rating":4.8,"reference":"ChIJeSWX16ef4jARjcGod7dDu0M","types":["store","point_of_interest","establishment"],"user_ratings_total":46}
{"business_status":"OPERATIONAL","formatted_address":"Inside Juicy Bangkok Sugar Club Complex, 37 Soi Sukhumvit 11, Khlong Toei Nuea, Watthana, Bangkok 10110, Thailand","geometry":{"location":{"lat":13.7430402,"lng":100.5565558},"viewport":{"northeast":{"lat":13.74438822989272,"lng":100.5579187298927},"southwest":{"lat":13.74168857010728,"lng":100.5552190701073}}},"icon":"https://maps.gstatic.com/mapfiles/place_api/icons/v1/png_71/shopping-71.png","icon_background_color":"#4B96F3","icon_mask_base_uri":"https://maps.gstatic.com/mapfiles/place_api/icons/v2/shopping_pinlet","name":"Juicy Buds","opening_hours":{"open_now":false},"photos":[{"height":4032,"html_attributions":["<a href=\"https://maps.google.com/maps/contrib/109812613982992948674\">kien fukuyama</a>"],"photo_reference":"AfLeUgNiA9SgRpyi8Wf3D2pgBxjg_I1WEXBQx90z8lmgXFvjgq5aUALZ1k-o5diZrAfWitTFzy99fONjAQdP_uYCKKvrj3fc9A1HLVgSOjs8YvxXXek6UijNiyEdFk7xYz3oO7v0TiFLbkn7LzGvrjUr1JzIRIjbOoFguet-ibCzhHapXytf","width":3024}],"place_id":"ChIJT6OmWsKf4jARn5yYvWo-ij0","plus_code":{"compound_code":"PHV4+6J Bangkok, Thailand","global_code":"7P52PHV4+6J"},"rating":4.3,"reference":"ChIJT6OmWsKf4jARn5yYvWo-ij0","types":["store","point_of_interest","establishment"],"user_ratings_total":12}
{"business_status":"OPERATIONAL","formatted_address":"lotus sukhumvit 50 Phra Khanong, Khlong Toei, Bangkok 10110, Thailand","geometry":{"location":{"lat":13.7059189,"lng":100.6007305},"viewport":{"northeast":{"lat":13.70720082989272,"lng":100.6021108798927},"southwest":{"lat":13.70450117010728,"lng":100.5994112201073}}},"icon":"https://maps.gstatic.com/mapfiles/place_api/icons/v1/png_71/shopping-71.png","icon_background_color":"#4B96F3","icon_mask_base_uri":"https://maps.gstatic.com/mapfiles/place_api/icons/v2/shopping_pinlet","name":"Siambis weed shop","opening_hours":{"open_now":false},"photos":[{"height":1477,"html_attributions":["<a href=\"https://maps.google.com/maps/contrib/109054909585561098887\">A Google User</a>"],"photo_reference":"AfLeUgO4-4S_xnnJHAGSyTCxqydV1rOZYndeLM2jCObmXmzFunSeHu6zGpQXGrHB0y-1_e8TLnYJiEbvsBw16Li9mYS6XaDwMJnmT--VCLlpP42DhyDq7juPLm9WssQPUFlqsKlX-MBHN4fVSpxP45etsnlxI8Gg6Oaj2Ta4AoAOp-0Ictzt","width":1108}],"place_id":"ChIJNcJuV1-f4jAROxldsQSyhY0","plus_code":{"compound_code":"PJ42+97 Bangkok, Thailand","global_code":"7P52PJ42+97"},"rating":5,"reference":"ChIJNcJuV1-f4jAROxldsQSyhY0","types":["store","point_of_interest","health","establishment"],"user_ratings_total":2}
{"business_status":"OPERATIONAL","formatted_address":"214, Tong Sala, Koh Phangan, Surat Thani 84280, Thailand","geometry":{"location":{"lat":9.711349499999999,"lng":99.9893481},"viewport":{"northeast":{"lat":9.712720329892724,"lng":99.99070417989273},"southwest":{"lat":9.71002067010728,"lng":99.98800452010728}}},"icon":"https://maps.gstatic.com/mapfiles/place_api/icons/v1/png_71/shopping-71.png","icon_background_color":"#4B96F3","icon_mask_base_uri":"https://maps.gstatic.com/mapfiles/place_api/icons/v2/shopping_pinlet","name":"Cannabis Center Koh Phangan","opening_hours":{"open_now":false},"photos":[{"height":1280,"html_attributions":["<a href=\"https://maps.google.com/maps/contrib/102082368734104538659\">A Google User</a>"],"photo_reference":"AfLeUgPkV8W3XdlciQzrVGgg7R9RDVGtnwr1JL15zSSDhTANT3HC5aKRCsDGZPQTeZHUVk_hzfeivxx-aZulfVxeaOKKuvpALNLhmQqM0t0M7kXH3McZx198O4OGeTRnpysyQHo9QWpD5U56aoplMiVXZddMXb7HCp_SS9I_jew_8TLxrW7N","width":960}],"place_id":"ChIJU5SeGg39VDARu-2hvKuE5Vs","plus_code":{"compound_code":"PX6Q+GP Ko Pha-ngan Sub-district, Ko Pha-ngan District, Surat Thani, Thailand","global_code":"6MXXPX6Q+GP"},"rating":4.9,"reference":"ChIJU5SeGg39VDARu-2hvKuE5Vs","types":["store","point_of_interest","establishment"],"user_ratings_total":35}
{"business_status":"OPERATIONAL","formatted_address":"16 Ekkamai 10 Alley, Lane 2, Phra Khanong Nuea, Watthana, Bangkok 10110, Thailand","geometry":{"location":{"lat":13.7271191,"lng":100.5874668},"viewport":{"northeast":{"lat":13.72847642989272,"lng":100.5887314298927},"southwest":{"lat":13.72577677010728,"lng":100.5860317701073}}},"icon":"https://maps.gstatic.com/mapfiles/place_api/icons/v1/png_71/shopping-71.png","icon_background_color":"#4B96F3","icon_mask_base_uri":"https://maps.gstatic.com/mapfiles/place_api/icons/v2/shopping_pinlet","name":"CANNABIS BANGKOK SUDYOD GANJA","opening_hours":{"open_now":false},"photos":[{"height":4032,"html_attributions":["<a href=\"https://maps.google.com/maps/contrib/116022699126229472522\">A Google User</a>"],"photo_reference":"AfLeUgP7BSAnCRgxuYrutGsM39XXL5TRZtpP9vygVSfiWq--3CUNm-w8V6cEp65iVdv0Ne5FNZ2PloqtEzNNdxeTeC0NSvSSDN2SR45AMxPYdkS6wX363OJRNk6jmvsVI2NS2eOx4b-t9VrdEsnpLgU4_6ZKpPjgZcgi4KfaaS9LT3XQTwml","width":3024}],"place_id":"ChIJv1hLAhWf4jARDTZFoDI0AtU","plus_code":{"compound_code":"PHGP+RX Bangkok, Thailand","global_code":"7P52PHGP+RX"},"rating":5,"reference":"ChIJv1hLAhWf4jARDTZFoDI0AtU","types":["store","point_of_interest","establishment"],"user_ratings_total":10}
{"business_status":"OPERATIONAL","formatted_address":"7 Suthat Rd, Talat Yai, เมือง Phuket 83000, Thailand","geometry":{"location":{"lat":7.888336499999999,"lng":98.3935647},"viewport":{"northeast":{"lat":7.889690929892721,"lng":98.39487807989272},"southwest":{"lat":7.886991270107277,"lng":98.39217842010729}}},"icon":"https://maps.gstatic.com/mapfiles/place_api/icons/v1/png_71/shopping-71.png","icon_background_color":"#4B96F3","icon_mask_base_uri":"https://maps.gstatic.com/mapfiles/place_api/icons/v2/shopping_pinlet","name":"Phuket Cannabis Shop","opening_hours":{"open_now":false},"photos":[{"height":4032,"html_attributions":["<a href=\"https://maps.google.com/maps/contrib/115205289958546669704\">A Google User</a>"],"photo_reference":"AfLeUgP6ZefccATLTKu59O6vN5bugcQhPoS0JQfdLv24ddTu-2UmipTOnonlq48npE17A4kMbL0MGoBD24X_itnTrDi61XbJsFW-YDDJVTUBBF4VbmsMN2TKVNaMXS5NelifKh9O0RVKjLhkBcPejK8U8P1CFys6JQAkHUWR4hA8p6luM_Xk","width":3024}],"place_id":"ChIJr5DVKXIxUDARkFrpAAhlsFA","plus_code":{"compound_code":"V9QV+8C Phuket, Mueang Phuket District, Phuket, Thailand","global_code":"6MVWV9QV+8C"},"rating":4.8,"reference":"ChIJr5DVKXIxUDARkFrpAAhlsFA","types":["store","point_of_interest","establishment"],"user_ratings_total":25}
{"business_status":"OPERATIONAL","formatted_address":"35/14-15, Bo Put, Surat Thani 84320, Thailand","geometry":{"location":{"lat":9.558052199999999,"lng":100.0314171},"viewport":{"northeast":{"lat":9.55941707989272,"lng":100.0327054298927},"southwest":{"lat":9.556717420107276,"lng":100.0300057701073}}},"icon":"https://maps.gstatic.com/mapfiles/place_api/icons/v1/png_71/shopping-71.png","icon_background_color":"#4B96F3","icon_mask_base_uri":"https://maps.gstatic.com/mapfiles/place_api/icons/v2/shopping_pinlet","name":"Grow High","opening_hours":{"open_now":false},"photos":[{"height":3024,"html_attributions":["<a href=\"https://maps.google.com/maps/contrib/117612508489889100006\">Minna N</a>"],"photo_reference":"AfLeUgOrZMJQSyDEWxI2qaZ_AOL6Ml4wJx6kpGVkIiJHQfce-ekkEl7vXeAZD2h4zUkpftghh9vdNtE4CKyNX0m6vSxlyiRfxohZkg6U8XHm0CGGuYLgdzo3eUo1uyo5dQVvu7hKH7KN_XQp9Cj7BdvoAWfwyjj37tPgkZUawciqa6dLk9iD","width":4032}],"place_id":"ChIJm45jPyPxVDARzKdYld9Jicw","plus_code":{"compound_code":"H25J+6H Koh Samui, Ko Samui District, Surat Thani, Thailand","global_code":"6PX2H25J+6H"},"rating":4.9,"reference":"ChIJm45jPyPxVDARzKdYld9Jicw","types":["cafe","bar","food","store","point_of_interest","establishment"],"user_ratings_total":67}
{"business_status":"OPERATIONAL","formatted_address":"22/133 Hua Hin, Prachuap Khiri Khan 77110, Thailand","geometry":{"location":{"lat":12.607444,"lng":99.9497066},"viewport":{"northeast":{"lat":12.60874357989272,"lng":99.95105657989272},"southwest":{"lat":12.60604392010728,"lng":99.94835692010727}}},"icon":"https://maps.gstatic.com/mapfiles/place_api/icons/v1/png_71/shopping-71.png","icon_background_color":"#4B96F3","icon_mask_base_uri":"https://maps.gstatic.com/mapfiles/place_api/icons/v2/shopping_pinlet","name":"Cannabis Shop Huahin SWEEDHOME","opening_hours":{"open_now":false},"photos":[{"height":2304,"html_attributions":["<a href=\"https://maps.google.com/maps/contrib/101097976371509355676\">A Google User</a>"],"photo_reference":"AfLeUgM4tII2gKNGczvAvOQXJtedaub9MI6YZrCTq-IF-0ozXMo9sLhzXakD0x1Fv4A4A5kQCmIy0qPiULMSfGMapDL7jxV0K_JoT4TVpcSj0kRXe4Di_fq-EuKGH5oSfHeQOZBlLpunGDBHhi5Ji1_vRFw4mGiw40YVAA39duL6V1epmX2y","width":4096}],"place_id":"ChIJ74EfNZWr_TARlY64P75J96A","plus_code":{"compound_code":"JW4X+XV Hua Hin, Hua Hin District, Prachuap Khiri Khan, Thailand","global_code":"7M4XJW4X+XV"},"rating":5,"reference":"ChIJ74EfNZWr_TARlY64P75J96A","types":["store","point_of_interest","establishment"],"user_ratings_total":3}
{"business_status":"OPERATIONAL","formatted_address":"1106 Sukhumvit Road, Phra Khanong, Khlong Toei, Bangkok 10110, Thailand","geometry":{"location":{"lat":13.7143241,"lng":100.591798},"viewport":{"northeast":{"lat":13.71580367989272,"lng":100.5932453298927},"southwest":{"lat":13.71310402010728,"lng":100.5905456701073}}},"icon":"https://maps.gstatic.com/mapfiles/place_api/icons/v1/png_71/shopping-71.png","icon_background_color":"#4B96F3","icon_mask_base_uri":"https://maps.gstatic.com/mapfiles/place_api/icons/v2/shopping_pinlet","name":"WEED Express Phrakanong - Cannabis Dispensary","opening_hours":{"open_now":false},"photos":[{"height":4032,"html_attributions":["<a href=\"https://maps.google.com/maps/contrib/109966832690071527799\">馬郁凌</a>"],"photo_reference":"AfLeUgMKrsNhMvayq65u8ApNDJJLcOG9OBq6bg2UoFRI515ylM9jQUXSuC384Rq7jkk1BffD4UTbIH_sR3HJ5imsOagQM_MhzzOQaGGegy0sni2Jn_LgWf3-xiPOHuK5rg4qwHhD-JN7qmoZDRNF8QMglqWWet64i-ivC7pePH5Jx4l12PAe","width":3024}],"place_id":"ChIJ86jj1fWf4jARwP3HeZUNLzM","plus_code":{"compound_code":"PH7R+PP Bangkok, Thailand","global_code":"7P52PH7R+PP"},"rating":5,"reference":"ChIJ86jj1fWf4jARwP3HeZUNLzM","types":["store","point_of_interest","establishment"],"user_ratings_total":190}
{"business_status":"OPERATIONAL","formatted_address":"758 Sukhumvit 30/1 Alley, Khwaeng Khlong Tan, Khlong Toei, Bangkok 10110, Thailand","geometry":{"location":{"lat":13.7265535,"lng":100.5724968},"viewport":{"northeast":{"lat":13.72793637989272,"lng":100.5737684798927},"southwest":{"lat":13.72523672010728,"lng":100.5710688201073}}},"icon":"https://maps.gstatic.com/mapfiles/place_api/icons/v1/png_71/shopping-71.png","icon_background_color":"#4B96F3","icon_mask_base_uri":"https://maps.gstatic.com/mapfiles/place_api/icons/v2/shopping_pinlet","name":"Bangkok Bud's","opening_hours":{"open_now":false},"photos":[{"height":2199,"html_attributions":["<a href=\"https://maps.google.com/maps/contrib/110333089356135096566\">A Google User</a>"],"photo_reference":"AfLeUgOYi2opNDjUu9wdOtZD6-Iew4VJKglfRaUMKQcG5FXs5-y8fR_3Be1BcnqUfFdUsCUfcv6SxcoPorcbVBfXeIO79ZEdHaeJXwj8sKoY8DAo4ptipNqYp000FnEBPWOh9m3u0oOSOtmmpCCpgpcmavm9vpvyu9a3HH4fmUHdYmlH6ZbA","width":3000}],"place_id":"ChIJncB05lMmm6IRnHAGS_FPTR8","plus_code":{"compound_code":"PHGC+JX Bangkok, Thailand","global_code":"7P52PHGC+JX"},"rating":4.8,"reference":"ChIJncB05lMmm6IRnHAGS_FPTR8","types":["store","point_of_interest","establishment"],"user_ratings_total":19}
{"business_status":"OPERATIONAL","formatted_address":"13, 3 Sukhumvit 65, Phra Khanong Nuea, Watthana, Bangkok 10110, Thailand","geometry":{"location":{"lat":13.7188561,"lng":100.5886108},"viewport":{"northeast":{"lat":13.72020582989272,"lng":100.5899601298927},"southwest":{"lat":13.71750617010728,"lng":100.5872604701073}}},"icon":"https://maps.gstatic.com/mapfiles/place_api/icons/v1/png_71/shopping-71.png","icon_background_color":"#4B96F3","icon_mask_base_uri":"https://maps.gstatic.com/mapfiles/place_api/icons/v2/shopping_pinlet","name":"Fat Buds Weed Shop​​ Ekkamai","opening_hours":{"open_now":false},"photos":[{"height":2400,"html_attributions":["<a href=\"https://maps.google.com/maps/contrib/101988063275339812016\">A Google User</a>"],"photo_reference":"AfLeUgMcduwnbNCzXOi1q2BzxpbDH_08gndJPVz-V2gQVOhyMOL8n4EL19a52wRVNU7WSYpLyXmHIsxBxIUaK0Oh2cfkIB_FACfiWO7jPdGhQG9r_LKCQITtxTM95XKxw15IWc4ktXYOdE8MXBUrU9hIne7fCGPjKtn7bnP1a5UG4b4N_uD0","width":1920}],"place_id":"ChIJF6ZCxj2f4jARry9ErcaIPco","plus_code":{"compound_code":"PH9Q+GC Bangkok, Thailand","global_code":"7P52PH9Q+GC"},"rating":4.9,"reference":"ChIJF6ZCxj2f4jARry9ErcaIPco","types":["store","point_of_interest","establishment"],"user_ratings_total":111}
{"business_status":"OPERATIONAL","formatted_address":"Bophut Road, 4169 Charoensook, Bo Put, Amphoe Ko Samui, Surat Thani 84220, Thailand","geometry":{"location":{"lat":9.5576832,"lng":100.0284286},"viewport":{"northeast":{"lat":9.558970429892721,"lng":100.0297435298927},"southwest":{"lat":9.556270770107277,"lng":100.0270438701073}}},"icon":"https://maps.gstatic.com/mapfiles/place_api/icons/v1/png_71/shopping-71.png","icon_background_color":"#4B96F3","icon_mask_base_uri":"https://maps.gstatic.com/mapfiles/place_api/icons/v2/shopping_pinlet","name":"Charoensook Weed Shop Samui","opening_hours":{"open_now":false},"photos":[{"height":2870,"html_attributions":["<a href=\"https://maps.google.com/maps/contrib/105767583686497101664\">Dima Vassilyev</a>"],"photo_reference":"AfLeUgMuXjFy_n179-KjDrN6iBivYCTu_kh4T8PvX6wan1IJnJSWwqUccRTUI5obcKGutMlgu0F2TcSSFoUk8BuPucoLCKqGvhtz4Vf5b9XjngGIP4EQjQr5UM4mQuUQPW4O927tAX-h_x6jLwaNirGfQtFwVp1xVwLtKBKBA0NMZRbPATCY","width":2027}],"place_id":"ChIJfY1TDHjxVDARWBA7nsOjvjc","plus_code":{"compound_code":"H25H+39 Koh Samui, Ko Samui District, Surat Thani, Thailand","global_code":"6PX2H25H+39"},"rating":5,"reference":"ChIJfY1TDHjxVDARWBA7nsOjvjc","types":["store","point_of_interest","establishment"],"user_ratings_total":13}
{"business_status":"OPERATIONAL","formatted_address":"21 420 sukhumvit soi5 Khlong Toei Nuea, Watthana, Bangkok 10110, Thailand","geometry":{"location":{"lat":13.7427719,"lng":100.5542249},"viewport":{"northeast":{"lat":13.74411672989272,"lng":100.5556112798927},"southwest":{"lat":13.74141707010728,"lng":100.5529116201073}}},"icon":"https://maps.gstatic.com/mapfiles/place_api/icons/v1/png_71/shopping-71.png","icon_background_color":"#4B96F3","icon_mask_base_uri":"https://maps.gstatic.com/mapfiles/place_api/icons/v2/shopping_pinlet","name":"Weed shop","opening_hours":{"open_now":true},"photos":[{"height":1108,"html_attributions":["<a href=\"https://maps.google.com/maps/contrib/108741132171845293182\">Apisit Chomphuthawat</a>"],"photo_reference":"AfLeUgPZEEQJXGYEKaEorzpiIgaH_5YRldQNY1IjiybwuQb4aYAhsmnZBh9d6SIzMcNik7k8TtKnerKtoNeI1xTqwXvNVygdkVYN931GhtTN2Q5__oM8ZD9vWYmDXv33j7MgUS8i8ZZluaWm-JjII77hNAJaJ8KZF1Vr039ScH483VEYT_0","width":1477}],"place_id":"ChIJiz_t-Tif4jARLFQ7XhDlA28","plus_code":{"compound_code":"PHV3+4M Bangkok, Thailand","global_code":"7P52PHV3+4M"},"rating":4.1,"reference":"ChIJiz_t-Tif4jARLFQ7XhDlA28","types":["store","point_of_interest","establishment"],"user_ratings_total":15}
{"business_status":"OPERATIONAL","formatted_address":"Bee Crazy Cannabis Store (249 Talat Yot, Phra Nakhon, Bangkok 10200, Thailand","geometry":{"location":{"lat":13.7586365,"lng":100.4981171},"viewport":{"northeast":{"lat":13.75998632989272,"lng":100.4994669298927},"southwest":{"lat":13.75728667010728,"lng":100.4967672701073}}},"icon":"https://maps.gstatic.com/mapfiles/place_api/icons/v1/png_71/shopping-71.png","icon_background_color":"#4B96F3","icon_mask_base_uri":"https://maps.gstatic.com/mapfiles/place_api/icons/v2/shopping_pinlet","name":"Bee Crazy Weed Shop","opening_hours":{"open_now":true},"photos":[{"height":3456,"html_attributions":["<a href=\"https://maps.google.com/maps/contrib/106097378602230535506\">A Google User</a>"],"photo_reference":"AfLeUgMFPn75iS_tUo3WnYZBtH-CG69wLXzn23reG4aNwZGN4aCVTwwZjYCSp-vobATFcSWjighZ0951aNrArnvpBHD7_ZI517x6wDdz6Atllc30N_YmCQ14duNeCRHqpi-nXcHZjoX7hbEYuEgl_GI0mzVN5edBeiwdu0XqT4ebAuqv9hSK","width":4608}],"place_id":"ChIJPwF1XRKZ4jARUKmofY_4qMY","plus_code":{"compound_code":"QF5X+F6 Bangkok, Thailand","global_code":"7P52QF5X+F6"},"rating":5,"reference":"ChIJPwF1XRKZ4jARUKmofY_4qMY","types":["store","point_of_interest","establishment"],"user_ratings_total":15}
{"business_status":"OPERATIONAL","formatted_address":"52, 3 สุขุมวิท 42 Phra Khanong, Klongtoey, Bangkok 10110, Thailand","geometry":{"location":{"lat":13.7133504,"lng":100.5841071},"viewport":{"northeast":{"lat":13.71469657989272,"lng":100.5854894798927},"southwest":{"lat":13.71199692010728,"lng":100.5827898201073}}},"icon":"https://maps.gstatic.com/mapfiles/place_api/icons/v1/png_71/shopping-71.png","icon_background_color":"#4B96F3","icon_mask_base_uri":"https://maps.gstatic.com/mapfiles/place_api/icons/v2/shopping_pinlet","name":"Sukhumweed","opening_hours":{"open_now":false},"photos":[{"height":1800,"html_attributions":["<a href=\"https://maps.google.com/maps/contrib/104354154539554096747\">Al Caudullo</a>"],"photo_reference":"AfLeUgNERkzpuzn9MyilBMerJXJqWq5Jz1fvoCcgYOxbTPuIDosit0iyO7g97UnQ_M3REmGN-wHS_RZI4pCyTwYdsrOfV20HanRsSfPqRL8L3EfJ1li_Q1-CjofKptDHFZUohG61zMHJE1TcNvIwi0H91KxIMciT9tfGrf3i832qe_fzpHbH","width":4000}],"place_id":"ChIJ8W5ikSif4jARlFSX4m78J_s","plus_code":{"compound_code":"PH7M+8J Bangkok, Thailand","global_code":"7P52PH7M+8J"},"rating":4.6,"reference":"ChIJ8W5ikSif4jARlFSX4m78J_s","types":["store","point_of_interest","establishment"],"user_ratings_total":58}
{"business_status":"OPERATIONAL","formatted_address":"84 Moo 10, Pattaya City, Bang Lamung District, Chon Buri 20150, Thailand","geometry":{"location":{"lat":12.9273496,"lng":100.8744373},"viewport":{"northeast":{"lat":12.92866247989272,"lng":100.8758151298927},"southwest":{"lat":12.92596282010728,"lng":100.8731154701073}}},"icon":"https://maps.gstatic.com/mapfiles/place_api/icons/v1/png_71/shopping-71.png","icon_background_color":"#4B96F3","icon_mask_base_uri":"https://maps.gstatic.com/mapfiles/place_api/icons/v2/shopping_pinlet","name":"The Old Weed Man","opening_hours":{"open_now":true},"photos":[{"height":4032,"html_attributions":["<a href=\"https://maps.google.com/maps/contrib/108897550605834706515\">micael persson</a>"],"photo_reference":"AfLeUgP81GL4LEBRiGZANyEVFaUJ7A_1GV8RWV4dlz5lJ67EsmxsNUz9Wwe4QFDFohcTUMcoeIYkJJ3tY6zPoYxt5-qPw876BjLXAqW4gKZL8EBvisdLVbXX1uYHv8kDnFHEKWZfj6d8czeo-Q6A9PIliqkoNVAQSTVvYRYZk5fyrKdRy2xn","width":3024}],"place_id":"ChIJ8ZQCv6GXAjERPYJmbGgEKAU","plus_code":{"compound_code":"WVGF+WQ Pattaya City, Bang Lamung District, Chon Buri, Thailand","global_code":"7P42WVGF+WQ"},"rating":3.5,"reference":"ChIJ8ZQCv6GXAjERPYJmbGgEKAU","types":["store","point_of_interest","establishment"],"user_ratings_total":45}
{"business_status":"OPERATIONAL","formatted_address":"380 92 Jomtien Second Rd, Pattaya City, Bang Lamung District, Chon Buri 20150, Thailand","geometry":{"location":{"lat":12.8939096,"lng":100.8762972},"viewport":{"northeast":{"lat":12.89530322989272,"lng":100.8777166798927},"southwest":{"lat":12.89260357010728,"lng":100.8750170201073}}},"icon":"https://maps.gstatic.com/mapfiles/place_api/icons/v1/png_71/shopping-71.png","icon_background_color":"#4B96F3","icon_mask_base_uri":"https://maps.gstatic.com/mapfiles/place_api/icons/v2/shopping_pinlet","name":"High Speed 420 Jomtien Weed Shop & Medical Cannabis Dispensary","opening_hours":{"open_now":false},"photos":[{"height":3024,"html_attributions":["<a href=\"https://maps.google.com/maps/contrib/112335546879912676237\">Nichasil Tantivejkul</a>"],"photo_reference":"AfLeUgOQtN65vBcIhy1itf3XXGSboHaODNYgXuqJNVtwySuITRkTbUPfbL8BCjkX1GucZLVGmOjqKzVFtfb9vvjpyLldrE-EhaD1eh7AyhBWv35rmFBigKN_im3E4gMVENsbEH9ThN1l8ZAS3UUMhG-xRUevjIpZiZlr7bFDB2YjaxJaLm7c","width":4032}],"place_id":"ChIJhWzIGYuXAjERifQJ73Wtao0","plus_code":{"compound_code":"VVVG+HG Pattaya City, Bang Lamung District, Chon Buri, Thailand","global_code":"7P42VVVG+HG"},"rating":5,"reference":"ChIJhWzIGYuXAjERifQJ73Wtao0","types":["store","point_of_interest","establishment"],"user_ratings_total":12}
{"business_status":"OPERATIONAL","formatted_address":"13 Siri Mangkalajarn Rd, Tambon Su Thep, Mueang Chiang Mai District, Chiang Mai 50200, Thailand","geometry":{"location":{"lat":18.7986805,"lng":98.9712057},"viewport":{"northeast":{"lat":18.80003867989272,"lng":98.97251722989273},"southwest":{"lat":18.79733902010728,"lng":98.9698175701073}}},"icon":"https://maps.gstatic.com/mapfiles/place_api/icons/v1/png_71/shopping-71.png","icon_background_color":"#4B96F3","icon_mask_base_uri":"https://maps.gstatic.com/mapfiles/place_api/icons/v2/shopping_pinlet","name":"Space Trees: Cannabis Dispensary Chiang Mai","opening_hours":{"open_now":false},"photos":[{"height":1774,"html_attributions":["<a href=\"https://maps.google.com/maps/contrib/106674740494669472186\">A Google User</a>"],"photo_reference":"AfLeUgOe2olTiwxW6AheHjcHyIAdYdJicwQk1uYEQhWuqv073L7BqN7eZO9pjfaqtYgMHOsALCqK3pOnZ0mCNCfLmz1J82zO-5oc8qwEBXHFngbUjVBRJN0HDeC6ztUghNwW0NucYhBcaFv14_qx9GjHgDmmyUb5rX1JllXLQPxqB73qZda8","width":2364}],"place_id":"ChIJjT2DBN872jARlgWMYo9gIz8","plus_code":{"compound_code":"QXXC+FF Chiang Mai, Mueang Chiang Mai District, Chiang Mai, Thailand","global_code":"7MCWQXXC+FF"},"rating":4.9,"reference":"ChIJjT2DBN872jARlgWMYo9gIz8","types":["store","point_of_interest","establishment"],"user_ratings_total":71}
{"business_status":"OPERATIONAL","formatted_address":"83 Ratchamanka Rd, Phrasing Amphoe Mueang Chiang Mai, Chang Wat Chiang Mai 50200, Thailand","geometry":{"location":{"lat":18.7856148,"lng":98.98807869999999},"viewport":{"northeast":{"lat":18.78700107989272,"lng":98.98943207989272},"southwest":{"lat":18.78430142010728,"lng":98.98673242010729}}},"icon":"https://maps.gstatic.com/mapfiles/place_api/icons/v1/png_71/shopping-71.png","icon_background_color":"#4B96F3","icon_mask_base_uri":"https://maps.gstatic.com/mapfiles/place_api/icons/v2/shopping_pinlet","name":"Stoner Cnx","opening_hours":{"open_now":false},"photos":[{"height":4032,"html_attributions":["<a href=\"https://maps.google.com/maps/contrib/102233012593818838479\">A Google User</a>"],"photo_reference":"AfLeUgPw0YpVxv7XbB_ABsmqj-1KwAyoN2TlF5MKvTRIlgXws2sX8jn1eyh2hyIv8rXfCnbzyUiAYUKZSrrOL92aNlZJ7iuG0eTZEkEm3MtoWrHQ4fniRW810NM6nHuxS0MzUOlmNOt1a3skGMMETMu4zZ_PpxxDcgW5CGqqMnoP2ZlukTT-","width":3024}],"place_id":"ChIJT1RoMbw72jAR1bCC7F7CX3g","plus_code":{"compound_code":"QXPQ+66 Chiang Mai, Mueang Chiang Mai District, Chiang Mai, Thailand","global_code":"7MCWQXPQ+66"},"rating":4.8,"reference":"ChIJT1RoMbw72jAR1bCC7F7CX3g","types":["store","point_of_interest","establishment"],"user_ratings_total":55}
{"business_status":"OPERATIONAL","formatted_address":"180, 1 Charoen Nakhon Rd, Samre, Thon Buri, Bangkok 10600, Thailand","geometry":{"location":{"lat":13.7074619,"lng":100.4921136},"viewport":{"northeast":{"lat":13.70874037989272,"lng":100.4935058298927},"southwest":{"lat":13.70604072010728,"lng":100.4908061701073}}},"icon":"https://maps.gstatic.com/mapfiles/place_api/icons/v1/png_71/shopping-71.png","icon_background_color":"#4B96F3","icon_mask_base_uri":"https://maps.gstatic.com/mapfiles/place_api/icons/v2/shopping_pinlet","name":"Stone Age Weed Dispensary","opening_hours":{"open_now":false},"photos":[{"height":4032,"html_attributions":["<a href=\"https://maps.google.com/maps/contrib/103334456743870631671\">A Google User</a>"],"photo_reference":"AfLeUgPdx0sCjAu9bgOo4AFFcC9-M1rhyixFucMLW7xiu99e0uHsudAmf4NHvhZITgFMYK7HeND28YuNoxikPhOLno1jkEH7qSFmmLgOzruYiq9EVjdjtmRtMQLDklXVxGudP_XaUcjsUMHC_Lu6ozldKAFY0_QgtJAH7jQoDq5Ptc-rd_54","width":3024}],"place_id":"ChIJNerk7GCZ4jARqekJ1jxI0SA","plus_code":{"compound_code":"PF4R+XR Bangkok, Thailand","global_code":"7P52PF4R+XR"},"rating":5,"reference":"ChIJNerk7GCZ4jARqekJ1jxI0SA","types":["store","point_of_interest","establishment"],"user_ratings_total":100}
{"business_status":"OPERATIONAL","formatted_address":"1025 3/4 Jetyod Rd, Tambon Wiang, Amphoe Meuang, Chiang Rai 57000, Thailand","geometry":{"location":{"lat":19.9058327,"lng":99.8310432},"viewport":{"northeast":{"lat":19.90719312989272,"lng":99.83244597989271},"southwest":{"lat":19.90449347010728,"lng":99.82974632010728}}},"icon":"https://maps.gstatic.com/mapfiles/place_api/icons/v1/png_71/shopping-71.png","icon_background_color":"#4B96F3","icon_mask_base_uri":"https://maps.gstatic.com/mapfiles/place_api/icons/v2/shopping_pinlet","name":"Cannabis Chi Weed Ganja","opening_hours":{"open_now":false},"photos":[{"height":1440,"html_attributions":["<a href=\"https://maps.google.com/maps/contrib/100698603379824613984\">A Google User</a>"],"photo_reference":"AfLeUgP6WZFQKgRAyeNJHErX87bHoAlUMfx7l6foCcdg1nSTQn-00RIbzsntRYhBcaQWI0qiaTkN05x25e8hsO8ICWcJbALCZexS6u0Gdqc82Y9jLLbxSC7zfeKL1wmY7a132b-SAHRT5JPO2SbZIp6gFlp5v96SNarBmRuuN_SvmE_2rJGC","width":1080}],"place_id":"ChIJJdOss7kH1zARsKEoAvP-pUo","plus_code":{"compound_code":"WR4J+8C Mueang Chiang Rai, Mueang Chiang Rai District, Chiang Rai, Thailand","global_code":"7MFXWR4J+8C"},"rating":5,"reference":"ChIJJdOss7kH1zARsKEoAvP-pUo","types":["store","point_of_interest","establishment"],"user_ratings_total":56}
{"business_status":"OPERATIONAL","formatted_address":"209 rajapruek road, nongkway, Hang Dong District, Chiang Mai 50230, Thailand","geometry":{"location":{"lat":18.7381446,"lng":98.9345639},"viewport":{"northeast":{"lat":18.73948512989272,"lng":98.93592252989274},"southwest":{"lat":18.73678547010728,"lng":98.93322287010729}}},"icon":"https://maps.gstatic.com/mapfiles/place_api/icons/v1/png_71/shopping-71.png","icon_background_color":"#4B96F3","icon_mask_base_uri":"https://maps.gstatic.com/mapfiles/place_api/icons/v2/shopping_pinlet","name":"High Speed 420 Weed Shop & Medical Cannabis Dispensary","opening_hours":{"open_now":false},"photos":[{"height":4032,"html_attributions":["<a href=\"https://maps.google.com/maps/contrib/111058041771616416282\">A Google User</a>"],"photo_reference":"AfLeUgO9FtqWAanFEeOYoSPXlAnRbxPSRAs7Y4qT-jOUNqDPMknYmh40SNtJZFjN4m-kMKoMhZ41pVtwBhSsi6ux-_VsClUS1xVaZtzuQ2c794n-zFb8hWjBsbfXkUbgZfkaANj_V6XaipzoiAsXOXeam59jVNs5SANDQfPLMfcX7sFOYgbZ","width":3024}],"place_id":"ChIJ6TAyBmox2jARgMpaG3aARPE","plus_code":{"compound_code":"PWQM+7R Mae Hia, Mueang Chiang Mai District, Chiang Mai, Thailand","global_code":"7MCWPWQM+7R"},"rating":5,"reference":"ChIJ6TAyBmox2jARgMpaG3aARPE","types":["store","point_of_interest","establishment"],"user_ratings_total":99}
{"business_status":"OPERATIONAL","formatted_address":"259 FL1 Khaosan Rd, Taladyod Phra Nakhon, Bangkok 10200, Thailand","geometry":{"location":{"lat":13.7585171,"lng":100.4983039},"viewport":{"northeast":{"lat":13.75983747989272,"lng":100.4996388298927},"southwest":{"lat":13.75713782010728,"lng":100.4969391701073}}},"icon":"https://maps.gstatic.com/mapfiles/place_api/icons/v1/png_71/shopping-71.png","icon_background_color":"#4B96F3","icon_mask_base_uri":"https://maps.gstatic.com/mapfiles/place_api/icons/v2/shopping_pinlet","name":"RG420 Cannabis store (Khaosan)","opening_hours":{"open_now":true},"photos":[{"height":2048,"html_attributions":["<a href=\"https://maps.google.com/maps/contrib/115571453521617737857\">A Google User</a>"],"photo_reference":"AfLeUgPypCNonhosPBQTxJn35Z-R4_lmmApOfwJ3whKd1hNiH7g7HvW8gaL7Z8D7uICAB8YBdmIdkS3XCdk0_2f60CQugBPGrV28rZ4fQgumardSYkbksBLwn1d0sujRvRxxnWLTg0-YPWM_8yj6xC6oW-pAXbHpeZke1iqPpWT4C9j7hRiz","width":3072}],"place_id":"ChIJEYmJOLKZ4jARLfrZOR3ifX4","plus_code":{"compound_code":"QF5X+C8 Bangkok, Thailand","global_code":"7P52QF5X+C8"},"rating":4.9,"reference":"ChIJEYmJOLKZ4jARLfrZOR3ifX4","types":["store","point_of_interest","establishment"],"user_ratings_total":61}
{"business_status":"OPERATIONAL","formatted_address":"1 Soi Sukhumvit 22, Klongton, Khlong Toei, Bangkok 10110, Thailand","geometry":{"location":{"lat":13.7330112,"lng":100.5654967},"viewport":{"northeast":{"lat":13.73441652989272,"lng":100.5668742298927},"southwest":{"lat":13.73171687010728,"lng":100.5641745701073}}},"icon":"https://maps.gstatic.com/mapfiles/place_api/icons/v1/png_71/shopping-71.png","icon_background_color":"#4B96F3","icon_mask_base_uri":"https://maps.gstatic.com/mapfiles/place_api/icons/v2/shopping_pinlet","name":"Kush House","opening_hours":{"open_now":false},"photos":[{"height":2268,"html_attributions":["<a href=\"https://maps.google.com/maps/contrib/114369270687018104541\">Frank Freudenberger</a>"],"photo_reference":"AfLeUgMNtHuWoW7wVEB-sirzDbfNZ8qM4Kgy0B-a4ub53iKyxr0kHuukC_Y5Pazwh-J5OXYZTB-GcGKSs5EX5iSlwJGup9YIMwLFX4NO2fWZ-b-31sSUoFhmacB9B3MxUmFR-VFAQIt1t4UUPrmaP3sht62_zqP6NYBpHfxUu6rmCc3I_Ys","width":4032}],"place_id":"ChIJy7m6C9qf4jAROTUp7ihpnIY","plus_code":{"compound_code":"PHM8+65 Bangkok, Thailand","global_code":"7P52PHM8+65"},"rating":4.9,"reference":"ChIJy7m6C9qf4jAROTUp7ihpnIY","types":["store","point_of_interest","establishment"],"user_ratings_total":127}
{"business_status":"OPERATIONAL","formatted_address":"Pratumnak Mountain, Kasetsin 7 Alley, Pattaya City, Amphoe Bang Lamung, Chang Wat Chon Buri 20150, Thailand","geometry":{"location":{"lat":12.9208648,"lng":100.861154},"viewport":{"northeast":{"lat":12.92221417989272,"lng":100.8625063798927},"southwest":{"lat":12.91951452010728,"lng":100.8598067201073}}},"icon":"https://maps.gstatic.com/mapfiles/place_api/icons/v1/png_71/shopping-71.png","icon_background_color":"#4B96F3","icon_mask_base_uri":"https://maps.gstatic.com/mapfiles/place_api/icons/v2/shopping_pinlet","name":"HQC-high quality canabis pattaya[Weed dispensary]","opening_hours":{"open_now":false},"photos":[{"height":1153,"html_attributions":["<a href=\"https://maps.google.com/maps/contrib/113864020059708848659\">A Google User</a>"],"photo_reference":"AfLeUgMSBYriBc1_ht9HHtvhavYbVBcAI8i993oIz0_kdfsr_xZ2rki0DoWSs77pOkqf7JZPApdqndHOzsVx9nDy9fOvANWd6pxMK-Ox265BN39J3t5diZ9KlslQLWIbIkeHYIy6mcJwp7mlvljkSfCAZCyRj41V2e5iJOFnwcpd5Unz5xas","width":2048}],"place_id":"ChIJtdycIUeXAjERtci0SX4F2Qc","plus_code":{"compound_code":"WVC6+8F Pattaya City, Bang Lamung District, Chon Buri, Thailand","global_code":"7P42WVC6+8F"},"rating":4.8,"reference":"ChIJtdycIUeXAjERtci0SX4F2Qc","types":["store","point_of_interest","establishment"],"user_ratings_total":49}
{"business_status":"OPERATIONAL","formatted_address":"193/5 Charunsanitwong Road Bangkun-Sri, Bangkok Noi, Bangkok 10700, Thailand","geometry":{"location":{"lat":13.7496304,"lng":100.4697437},"viewport":{"northeast":{"lat":13.75098332989272,"lng":100.4711279298927},"southwest":{"lat":13.74828367010728,"lng":100.4684282701073}}},"icon":"https://maps.gstatic.com/mapfiles/place_api/icons/v1/png_71/shopping-71.png","icon_background_color":"#4B96F3","icon_mask_base_uri":"https://maps.gstatic.com/mapfiles/place_api/icons/v2/shopping_pinlet","name":"WeedviewTH","opening_hours":{"open_now":false},"photos":[{"height":3661,"html_attributions":["<a href=\"https://maps.google.com/maps/contrib/106534061821228138936\">jane mathawon</a>"],"photo_reference":"AfLeUgN-X-Ccheq2h-oByCvYeo5jxqENrOFIUTELiTbwcDQ046cWbn5xTkhXtCG8MlWc2JtLkB4-NLPX44kmXq_7tegcYE9EWOthv64txpYolEMZcsyfkcZR2TaF3UPaUQnXiGZKaclq7vsJFjA0kU74KlID0X3bteGvIBfJgxE4twEcaTe-","width":2685}],"place_id":"ChIJTyeBp_qZ4jARTYFl70iXVng","plus_code":{"compound_code":"PFX9+VV Bangkok, Thailand","global_code":"7P52PFX9+VV"},"rating":5,"reference":"ChIJTyeBp_qZ4jARTYFl70iXVng","types":["cafe","store","food","point_of_interest","establishment"],"user_ratings_total":179,"seller":"Verified Seller"}
{"business_status":"OPERATIONAL","formatted_address":"61 20 หมู่.4 ถนนเจ้าตะวันตก Wichit, เมือง Phuket 83000, Thailand","geometry":{"location":{"lat":7.879744499999999,"lng":98.36387239999999},"viewport":{"northeast":{"lat":7.88113997989272,"lng":98.36522317989272},"southwest":{"lat":7.878440320107276,"lng":98.36252352010727}}},"icon":"https://maps.gstatic.com/mapfiles/place_api/icons/v1/png_71/shopping-71.png","icon_background_color":"#4B96F3","icon_mask_base_uri":"https://maps.gstatic.com/mapfiles/place_api/icons/v2/shopping_pinlet","name":"Tuamae Organic420 ตัวแม่ออร์แกนิค420 (Weed Shop)","opening_hours":{"open_now":false},"photos":[{"height":1428,"html_attributions":["<a href=\"https://maps.google.com/maps/contrib/102407858807229493163\">A Google User</a>"],"photo_reference":"AfLeUgOdmkf99lEQuknE_Bw2e_2bUACnNfZUhqvPqYlPko-7O0J35c-LUXRCxaUwCVS60vHIW6oMjaAgpp1lvSew6nMd68Z27eU8rJ2ag02OeZ2cqFBYfUYqYYUTp4ddyxw2aIfFSqU1cJTXy1EeFmtpl4yXSIbMtnTXCJ1WotNR9qKzWVzR","width":1148}],"place_id":"ChIJNSPKtOExUDAR6OK8IY3LU7I","plus_code":{"compound_code":"V9H7+VG Wichit, Mueang Phuket District, Phuket, Thailand","global_code":"6MVWV9H7+VG"},"rating":5,"reference":"ChIJNSPKtOExUDAR6OK8IY3LU7I","types":["store","point_of_interest","establishment"],"user_ratings_total":108}
{"business_status":"OPERATIONAL","formatted_address":"1/60 อ่อนนุข ซอย อ่อนนุช 70/1 ประเวศ Prawet, Bangkok 10250, Thailand","geometry":{"location":{"lat":13.7158687,"lng":100.6542111},"viewport":{"northeast":{"lat":13.71718627989272,"lng":100.6555322298927},"southwest":{"lat":13.71448662010728,"lng":100.6528325701073}}},"icon":"https://maps.gstatic.com/mapfiles/place_api/icons/v1/png_71/shopping-71.png","icon_background_color":"#4B96F3","icon_mask_base_uri":"https://maps.gstatic.com/mapfiles/place_api/icons/v2/shopping_pinlet","name":"energy weed shop​","opening_hours":{"open_now":false},"photos":[{"height":1523,"html_attributions":["<a href=\"https://maps.google.com/maps/contrib/105236647054084202062\">A Google User</a>"],"photo_reference":"AfLeUgPcZ9dNvMnSHpq0WgpCyBWUfxC8uIN_fbnLBZRgv1MC_-1RwX-556U4Yhljmun0cR_io5-kVSS16knj4wruKALTqsvVAe31lTfjWl5buDNzgz2bdhgTOuQQtYW2Xh-oBfHRuzWkAzR77dWOBKS81bkmmYDHlYC-Gb9WJDwG0jGZA5WT","width":1077}],"place_id":"ChIJi1S3MNBhHTER9brxqDnPRfU","plus_code":{"compound_code":"PM83+8M Bangkok, Thailand","global_code":"7P52PM83+8M"},"rating":4.9,"reference":"ChIJi1S3MNBhHTER9brxqDnPRfU","types":["store","point_of_interest","establishment"],"user_ratings_total":11}
{"business_status":"OPERATIONAL","formatted_address":"199, 14 Rattanathibet Rd, Tambon Bang Rak Noi, Mueang Nonthaburi District, Nonthaburi 11000, Thailand","geometry":{"location":{"lat":13.8803096,"lng":100.4589365},"viewport":{"northeast":{"lat":13.88166492989272,"lng":100.4603338298927},"southwest":{"lat":13.87896527010728,"lng":100.4576341701073}}},"icon":"https://maps.gstatic.com/mapfiles/place_api/icons/v1/png_71/shopping-71.png","icon_background_color":"#4B96F3","icon_mask_base_uri":"https://maps.gstatic.com/mapfiles/place_api/icons/v2/shopping_pinlet","name":"Happy Brick Cannabis","opening_hours":{"open_now":false},"photos":[{"height":3024,"html_attributions":["<a href=\"https://maps.google.com/maps/contrib/101281913814226875534\">A Google User</a>"],"photo_reference":"AfLeUgM0v5vxDCmlnEw4EqGEy9EqeDEYtWa1rK1b2Kd97z4iyNxgBOA55UykpgNCg_aZxKr-gZ-SxUvM5zTmcsgnW6leIvEUXB3DhNDbDp0AL2QkQgTHLOARPgO6zkCogCzOzOq70q3vWIDeLSq4auJeecECvVmwNOSRn_6gKk00b8arvRL7","width":4032}],"place_id":"ChIJAxm_Ahqb4jARTVBNGvcRaqU","plus_code":{"compound_code":"VFJ5+4H Bang Rak Noi, Mueang Nonthaburi District, Nonthaburi, Thailand","global_code":"7P52VFJ5+4H"},"rating":5,"reference":"ChIJAxm_Ahqb4jARTVBNGvcRaqU","types":["store","point_of_interest","establishment"],"user_ratings_total":10}
{"business_status":"OPERATIONAL","formatted_address":"135, 11 Chonprathan Rd, Amphur Muang, Chiang Mai 50100, Thailand","geometry":{"location":{"lat":18.7429083,"lng":98.9401309},"viewport":{"northeast":{"lat":18.74436662989272,"lng":98.94140227989271},"southwest":{"lat":18.74166697010728,"lng":98.93870262010728}}},"icon":"https://maps.gstatic.com/mapfiles/place_api/icons/v1/png_71/shopping-71.png","icon_background_color":"#4B96F3","icon_mask_base_uri":"https://maps.gstatic.com/mapfiles/place_api/icons/v2/shopping_pinlet","name":"PrikPot","opening_hours":{"open_now":false},"photos":[{"height":3744,"html_attributions":["<a href=\"https://maps.google.com/maps/contrib/115780561020981368746\">A Google User</a>"],"photo_reference":"AfLeUgNi9lILEvLpu1T5QM_Eq3IVgdaloq6NrchseWllYtfJPHpMSFlLXSPlFHc4XTwhYJfHuDW3qOoLfMTljVVM0u47ltTxPpXFYiJEKsakUOlgrHvMMS1WLe3UYKo8kkwC-Y-vJUf-9PIJHlWA26dDnfDegXCmW928O7EJgP6zIaIQsPUX","width":5616}],"place_id":"ChIJh2kjVaMx2jARJxjQryg3Sg8","plus_code":{"compound_code":"PWVR+53 Mae Hia, Mueang Chiang Mai District, Chiang Mai, Thailand","global_code":"7MCWPWVR+53"},"rating":5,"reference":"ChIJh2kjVaMx2jARJxjQryg3Sg8","types":["store","point_of_interest","establishment"],"user_ratings_total":14}
{"business_status":"OPERATIONAL","formatted_address":"PX5V+G9C, Ko Pha-ngan Sub-district, Ko Pha-ngan District, Surat Thani 84280, Thailand","geometry":{"location":{"lat":9.708799299999999,"lng":99.99335459999999},"viewport":{"northeast":{"lat":9.710145979892722,"lng":99.99472582989273},"southwest":{"lat":9.707446320107278,"lng":99.99202617010728}}},"icon":"https://maps.gstatic.com/mapfiles/place_api/icons/v1/png_71/shopping-71.png","icon_background_color":"#4B96F3","icon_mask_base_uri":"https://maps.gstatic.com/mapfiles/place_api/icons/v2/shopping_pinlet","name":"Cali Weed Phangan","opening_hours":{"open_now":false},"photos":[{"height":3024,"html_attributions":["<a href=\"https://maps.google.com/maps/contrib/117200502110182525150\">A Google User</a>"],"photo_reference":"AfLeUgMB9KumDHeeajeh6HMik-v7pY9Bz5gpXuKhuao-3JQoavqGCQqGUPMzJ4Des6Vd7aSTsLe33yixr3QfsidsGcntxQD2MVRYiICwOAu96t2o6_KZG1mogoqpGTCzzOnYrd4qlKNYQ6kVLo4WD_v3SmML1uTaSWEPbpt3ISZMmjnsQUHJ","width":4032}],"place_id":"ChIJJ7BuHLj9VDARx4DTb7DN5sg","rating":5,"reference":"ChIJJ7BuHLj9VDARx4DTb7DN5sg","types":["store","point_of_interest","establishment"],"user_ratings_total":4}
{"business_status":"OPERATIONAL","formatted_address":"25/3 ถนนสนามบินเก่า อ.เมือง, Thailand","geometry":{"location":{"lat":18.7884815,"lng":98.96264599999999},"viewport":{"northeast":{"lat":18.78983202989272,"lng":98.96393662989271},"southwest":{"lat":18.78713237010728,"lng":98.96123697010727}}},"icon":"https://maps.gstatic.com/mapfiles/place_api/icons/v1/png_71/shopping-71.png","icon_background_color":"#4B96F3","icon_mask_base_uri":"https://maps.gstatic.com/mapfiles/place_api/icons/v2/shopping_pinlet","name":"Wild weed","opening_hours":{"open_now":false},"photos":[{"height":4032,"html_attributions":["<a href=\"https://maps.google.com/maps/contrib/117501660319999010603\">A Google User</a>"],"photo_reference":"AfLeUgOXL-7KrADNDcJqg0iX9gblx7RKX-Wna_2FxlMmktDtAyvP3kEA910q-N9PyK-rvJ_YVKSYcKrC6R3jtUO3ROAdSsk4h7312eVAPM2UJ7Ri_KtM6L20yanmvAbNkuy1MAqtGgRNz5CgV9fabIzcGT8L9o67MQpSRa_fky34J8kqlHNk","width":3024}],"place_id":"ChIJk_xsSXk72jARgfBalPtupE0","plus_code":{"compound_code":"QXQ7+93 Chiang Mai, Mueang Chiang Mai District, Chiang Mai, Thailand","global_code":"7MCWQXQ7+93"},"rating":4.4,"reference":"ChIJk_xsSXk72jARgfBalPtupE0","types":["store","point_of_interest","establishment"],"user_ratings_total":5}
{"business_status":"OPERATIONAL","formatted_address":"Jomtian 14 Soi Chaiyapruk Pattaya NaJomtian NaJomtian Thailand","geometry":{"location":{"lat":12.8783013,"lng":100.8887241},"viewport":{"northeast":{"lat":12.87967482989272,"lng":100.8900666798927},"southwest":{"lat":12.87697517010728,"lng":100.8873670201073}}},"icon":"https://maps.gstatic.com/mapfiles/place_api/icons/v1/png_71/shopping-71.png","icon_background_color":"#4B96F3","icon_mask_base_uri":"https://maps.gstatic.com/mapfiles/place_api/icons/v2/shopping_pinlet","name":"AAA Cannabis shop pattaya","opening_hours":{"open_now":false},"photos":[{"height":1872,"html_attributions":["<a href=\"https://maps.google.com/maps/contrib/101517207995793766017\">A Google User</a>"],"photo_reference":"AfLeUgPV3wEZTth405bS5yCtaWa6X2lFSIZRAV9aycE1BB_0lty-yME77ugAIQWvoj4lDcpUrtKyNsKjrgxIjrv81LIZ8FknN4S7A68VVYHwAjb2Fdsops0ohYvzUcxmbMBk0Cbtb-Nqt1pdl5RJTiyLucTRs-Kjhix3GBk9ezXrIwzEzY_e","width":4160}],"place_id":"ChIJ39CZebqXAjERMxoJuj3retQ","plus_code":{"compound_code":"VVHQ+8F Pattaya City, Bang Lamung District, Chon Buri, Thailand","global_code":"7P42VVHQ+8F"},"rating":5,"reference":"ChIJ39CZebqXAjERMxoJuj3retQ","types":["store","point_of_interest","establishment"],"user_ratings_total":6}
{"business_status":"OPERATIONAL","formatted_address":"Udom Suk 34 Alley, Khwaeng Bang Na, Bang Na, Bangkok 10260, Thailand","geometry":{"location":{"lat":13.6780336,"lng":100.6256276},"viewport":{"northeast":{"lat":13.67930992989272,"lng":100.6268812298927},"southwest":{"lat":13.67661027010728,"lng":100.6241815701073}}},"icon":"https://maps.gstatic.com/mapfiles/place_api/icons/v1/png_71/shopping-71.png","icon_background_color":"#4B96F3","icon_mask_base_uri":"https://maps.gstatic.com/mapfiles/place_api/icons/v2/shopping_pinlet","name":"Panna Cannabis","opening_hours":{"open_now":true},"photos":[{"height":1536,"html_attributions":["<a href=\"https://maps.google.com/maps/contrib/103230652435055030139\">A Google User</a>"],"photo_reference":"AfLeUgPfxbnO2chXBfYOe0NsaQU0xJBAOjdNuI5YbSi5dT6zwhD7A6lP9XfMTG38xJBvAW9mbBon1smQiIJrvKjsW05crmqYrMRVWMgeH-_TJKbXaM6jtLgpK_jsCsc8ELjbcnhg-fC_egyPBaxgVUZuy3T74rf6976nUtr36yx6I0xD7p7n","width":2728}],"place_id":"ChIJFYALfa9fHTEROx66PJgV1S8","plus_code":{"compound_code":"MJHG+67 Bangkok, Thailand","global_code":"7P52MJHG+67"},"rating":5,"reference":"ChIJFYALfa9fHTEROx66PJgV1S8","types":["store","point_of_interest","establishment"],"user_ratings_total":4}
{"business_status":"OPERATIONAL","formatted_address":"1220 ถนนเจริญกรุง สามแยกสุรวงศ์ ตัดเจริญกรุง บางรัก Bang Rak, Bangkok 10500, Thailand","geometry":{"location":{"lat":13.725379,"lng":100.5162048},"viewport":{"northeast":{"lat":13.72672922989272,"lng":100.5175618798927},"southwest":{"lat":13.72402957010728,"lng":100.5148622201073}}},"icon":"https://maps.gstatic.com/mapfiles/place_api/icons/v1/png_71/shopping-71.png","icon_background_color":"#4B96F3","icon_mask_base_uri":"https://maps.gstatic.com/mapfiles/place_api/icons/v2/shopping_pinlet","name":"Cannabis SP Shop","opening_hours":{"open_now":false},"photos":[{"height":4032,"html_attributions":["<a href=\"https://maps.google.com/maps/contrib/118118770944551476449\">A Google User</a>"],"photo_reference":"AfLeUgMhyCgIMCK63oBAG4qPeqysOuOU-yCS61ZB-5V3t4i_gdKtJpGenAfYQ9HSLl4g09KDlVU15dCLF0c9niwf4gXNVg1jKpoP1aioAaC0-9gZVmRv2O0d289m48GOluzVqJ2DXby8Fzv0P5NB8NVHC4VhDw-LdcZG3aWe99ImDhe0uh8N","width":3024}],"place_id":"ChIJF1uEdZeZ4jAROlp3vE50_Tg","plus_code":{"compound_code":"PGG8+5F Bangkok, Thailand","global_code":"7P52PGG8+5F"},"rating":5,"reference":"ChIJF1uEdZeZ4jAROlp3vE50_Tg","types":["store","point_of_interest","establishment"],"user_ratings_total":26}
{"business_status":"OPERATIONAL","formatted_address":"128 คลองเตย Khlong Toei, Bangkok 10110, Thailand","geometry":{"location":{"lat":13.7416946,"lng":100.5534907},"viewport":{"northeast":{"lat":13.74309902989272,"lng":100.5548715298927},"southwest":{"lat":13.74039937010728,"lng":100.5521718701073}}},"icon":"https://maps.gstatic.com/mapfiles/place_api/icons/v1/png_71/shopping-71.png","icon_background_color":"#4B96F3","icon_mask_base_uri":"https://maps.gstatic.com/mapfiles/place_api/icons/v2/shopping_pinlet","name":"Nana Weed Station","opening_hours":{"open_now":true},"photos":[{"height":3024,"html_attributions":["<a href=\"https://maps.google.com/maps/contrib/115202599616971702614\">Kitiwat Music</a>"],"photo_reference":"AfLeUgPi2i5rCw7KhfBR4PurpL8tH4nwxz94OfviPrZiFQlid9B4i0zZ0RazexYsQBznPB0VOfohnnupmUtTtVAI1WTulVxLld21rVFsiP623Jq4IwD68uxLuMeiCiqp3JHm7VseZPgwZOfu7dbMgsuvgbgIyXWvElQxhC084kXJuMAkWBF8","width":4032}],"place_id":"ChIJnVGFCQKf4jARh562VGLcrJE","plus_code":{"compound_code":"PHR3+M9 Bangkok, Thailand","global_code":"7P52PHR3+M9"},"rating":4.2,"reference":"ChIJnVGFCQKf4jARh562VGLcrJE","types":["store","point_of_interest","establishment"],"user_ratings_total":38}
{"business_status":"OPERATIONAL","formatted_address":"566 Phloen Chit Rd, Lumphini, Pathum Wan, Bangkok 10330, Thailand","geometry":{"location":{"lat":13.7425341,"lng":100.5497728},"viewport":{"northeast":{"lat":13.74387902989272,"lng":100.5511495798927},"southwest":{"lat":13.74117937010728,"lng":100.5484499201073}}},"icon":"https://maps.gstatic.com/mapfiles/place_api/icons/v1/png_71/shopping-71.png","icon_background_color":"#4B96F3","icon_mask_base_uri":"https://maps.gstatic.com/mapfiles/place_api/icons/v2/shopping_pinlet","name":"High Society BKK Cannabis Dispensary/Weed shop","opening_hours":{"open_now":false},"photos":[{"height":4032,"html_attributions":["<a href=\"https://maps.google.com/maps/contrib/115953727327157127625\">Joshua Vongsvirates</a>"],"photo_reference":"AfLeUgMIdd2uwkOH3MoqIRgknzVn88hF3OdX9Uz3oBEEbwbz6w7NeU6PWz4IBB2LbDYXPBIJiDjJTFD1s8rDuElhbh8-Je5EECd8W34kDlYbtAHO8OYExBawAQE3GIzsXnwPW40Stlte_-6tUXzC3z-DbJS2zys6Pna8s_dVz2F2uHmZ4u16","width":3024}],"place_id":"ChIJfWQVaA-f4jAR41SGZ4mW7u0","plus_code":{"compound_code":"PGVX+2W Bangkok, Thailand","global_code":"7P52PGVX+2W"},"rating":4.7,"reference":"ChIJfWQVaA-f4jAR41SGZ4mW7u0","types":["store","point_of_interest","establishment"],"user_ratings_total":14}
{"business_status":"OPERATIONAL","formatted_address":"2050 Pattaya City, Amphoe Bang Lamung, Chon Buri 20150, Thailand","geometry":{"location":{"lat":12.8738983,"lng":100.8898281},"viewport":{"northeast":{"lat":12.87511722989272,"lng":100.8912562298927},"southwest":{"lat":12.87241757010728,"lng":100.8885565701073}}},"icon":"https://maps.gstatic.com/mapfiles/place_api/icons/v1/png_71/shopping-71.png","icon_background_color":"#4B96F3","icon_mask_base_uri":"https://maps.gstatic.com/mapfiles/place_api/icons/v2/shopping_pinlet","name":"CANNABOY SHOP","opening_hours":{"open_now":false},"photos":[{"height":4080,"html_attributions":["<a href=\"https://maps.google.com/maps/contrib/109542392891117389618\">A Google User</a>"],"photo_reference":"AfLeUgPnf2sBVPRSRyH9NPdsxVBp9EGRI6v3SbMPTCv6XLEiyrAschXrMOXMd8-IPmPs7zfEQbOXDfzRR0fIpvxHuopK-oL0ESz4eH9DinybQh5mnV57gQHXgz8ayQUODQaGrklAzQoL6e7w0qauasitt3euNNv8qB3oaPdg8QnPH1qWzdoL","width":3072}],"place_id":"ChIJLyKSxECXAjERjDg8-KaP7no","plus_code":{"compound_code":"VVFQ+HW Pattaya City, Bang Lamung District, Chon Buri, Thailand","global_code":"7P42VVFQ+HW"},"rating":0,"reference":"ChIJLyKSxECXAjERjDg8-KaP7no","types":["store","point_of_interest","establishment"],"user_ratings_total":0}
{"business_status":"OPERATIONAL","formatted_address":"45, 75 Soi Ta-iad, Chalong, Mueang Phuket District, Phuket 83130, Thailand","geometry":{"location":{"lat":7.8514987,"lng":98.3484893},"viewport":{"northeast":{"lat":7.852971379892722,"lng":98.34993172989272},"southwest":{"lat":7.850271720107278,"lng":98.34723207010727}}},"icon":"https://maps.gstatic.com/mapfiles/place_api/icons/v1/png_71/shopping-71.png","icon_background_color":"#4B96F3","icon_mask_base_uri":"https://maps.gstatic.com/mapfiles/place_api/icons/v2/shopping_pinlet","name":"Green Room Phuket","opening_hours":{"open_now":false},"photos":[{"height":4032,"html_attributions":["<a href=\"https://maps.google.com/maps/contrib/112037558402361335717\">A Google User</a>"],"photo_reference":"AfLeUgMapW_2TvFjoIy6-Un4N_FkxrDlomRKXtEfjCToiUWv3jEoDLoDWiyy9Q6v6hFGKz6xir4C-JFJhBjSL79hBWkk-EMxvABMDCJ0hAn9tgnriNVa05ZGq-GVUi8z2Nz0m3xhRF03HXLsv9f6rYbptKwURDcJaG4wSztnXhjXij-tbih8","width":3024}],"place_id":"ChIJjyik06QvUDAR-B_E0brmSO8","plus_code":{"compound_code":"V82X+H9 Chalong, Mueang Phuket District, Phuket, Thailand","global_code":"6MVWV82X+H9"},"rating":5,"reference":"ChIJjyik06QvUDAR-B_E0brmSO8","types":["bakery","store","food","point_of_interest","establishment"],"user_ratings_total":107}
{"business_status":"OPERATIONAL","formatted_address":"101, Lamai, 47 Had Lamai Rd, Maret, Amphoe Ko Samui, Surat Thani 84310, Thailand","geometry":{"location":{"lat":9.468646,"lng":100.0454486},"viewport":{"northeast":{"lat":9.469972479892721,"lng":100.0467961798927},"southwest":{"lat":9.467272820107278,"lng":100.0440965201073}}},"icon":"https://maps.gstatic.com/mapfiles/place_api/icons/v1/png_71/cafe-71.png","icon_background_color":"#FF9E67","icon_mask_base_uri":"https://maps.gstatic.com/mapfiles/place_api/icons/v2/cafe_pinlet","name":"Lamai weed store Samui cannabis","opening_hours":{"open_now":true},"photos":[{"height":3096,"html_attributions":["<a href=\"https://maps.google.com/maps/contrib/108816576692365532552\">A Google User</a>"],"photo_reference":"AfLeUgPVwey1RBDHYO7GW65uqvmsNFmeL9ZVu98fUFQci8GF_XoBJ1FJfXRR9OnYVrAT4QphfpSnr13CvGktBK5FGw4nuv_y1BMGBjNu4RdTd0ONMWq6Jq7zCZdUsE92YZzR0N2zIoueVR6UYPqZcQC6rW7Z_PNkqsDwJCwkR842DyKk6Ydm","width":5504}],"place_id":"ChIJR8QUl5PzVDARd06e1Oc3fQU","plus_code":{"compound_code":"F29W+F5 Koh Samui, Ko Samui District, Surat Thani, Thailand","global_code":"6PX2F29W+F5"},"rating":4.8,"reference":"ChIJR8QUl5PzVDARd06e1Oc3fQU","types":["cafe","store","food","point_of_interest","establishment"],"user_ratings_total":9}
{"business_status":"OPERATIONAL","formatted_address":"Thanon Sangchuto, Tambon Tha Ma Kham, Kanchanaburi, 71000, Thailand","geometry":{"location":{"lat":14.053891,"lng":99.5003249},"viewport":{"northeast":{"lat":14.05531912989272,"lng":99.50176452989272},"southwest":{"lat":14.05261947010728,"lng":99.49906487010728}}},"icon":"https://maps.gstatic.com/mapfiles/place_api/icons/v1/png_71/shopping-71.png","icon_background_color":"#4B96F3","icon_mask_base_uri":"https://maps.gstatic.com/mapfiles/place_api/icons/v2/shopping_pinlet","name":"Cannabis Cafe Kanchanaburi","opening_hours":{"open_now":false},"photos":[{"height":540,"html_attributions":["<a href=\"https://maps.google.com/maps/contrib/117268534737692483800\">A Google User</a>"],"photo_reference":"AfLeUgOYPoOThz8Skaz4DZ2NqtnePJcKoNsdqh_OkjnQoaQX4B44vFODpmhJybox02VIJjQs4HHVQUxtrGomRSPoPvvTPKkkYIX-huL7sv8KgRmc3Xr_cXvVO7vAwZd-QZovRIicRny8klxM4-ce-RKrW_ElvY97NjYxhKrtH2s62P5xZa9b","width":1080}],"place_id":"ChIJ9dd2o_F14zARgEyfY26AOpY","plus_code":{"compound_code":"3G32+H4 Tha Ma Kham, Mueang Kanchanaburi District, Kanchanaburi, Thailand","global_code":"7M6X3G32+H4"},"rating":5,"reference":"ChIJ9dd2o_F14zARgEyfY26AOpY","types":["store","point_of_interest","establishment"],"user_ratings_total":8}
{"business_status":"OPERATIONAL","formatted_address":"Opposite Loma food center, 186-3, Opposite, Thawewong Rd, Pa Tong, Kathu District, Phuket 83150, Thailand","geometry":{"location":{"lat":7.8980906,"lng":98.2967841},"viewport":{"northeast":{"lat":7.899449479892722,"lng":98.29808567989272},"southwest":{"lat":7.896749820107278,"lng":98.29538602010729}}},"icon":"https://maps.gstatic.com/mapfiles/place_api/icons/v1/png_71/shopping-71.png","icon_background_color":"#4B96F3","icon_mask_base_uri":"https://maps.gstatic.com/mapfiles/place_api/icons/v2/shopping_pinlet","name":"Cannabis Store Phuket","opening_hours":{"open_now":true},"photos":[{"height":4032,"html_attributions":["<a href=\"https://maps.google.com/maps/contrib/112065407782643208460\">A Google User</a>"],"photo_reference":"AfLeUgOkVjQcrcySS6_bmLqoACCIcVlpvCAT3_8ysCLeeacn-vw0cayKRzz7WxFEuzmE10_PzE7_mfolcDNNqsWIGFZX6DfqQsmXY2OIuPr9opljygbxNiAiWMoWz1GgHS3ULn0IuV4Zo9gC4jPDwOmIEdCDuyxrDCghLnwnJx1ZtUC6exkL","width":3024}],"place_id":"ChIJ92MWVYI7UDARrOFZB2kr_o4","plus_code":{"compound_code":"V7XW+6P Pa Tong, Kathu District, Phuket, Thailand","global_code":"6MVWV7XW+6P"},"rating":5,"reference":"ChIJ92MWVYI7UDARrOFZB2kr_o4","types":["store","point_of_interest","establishment"],"user_ratings_total":6}
{"business_status":"OPERATIONAL","formatted_address":"Q8GG+5WJ, Highway 4233, Mueang Phuket, Mueang Phuket District, Phuket 83100, Thailand","geometry":{"location":{"lat":7.775538000000001,"lng":98.32729499999999},"viewport":{"northeast":{"lat":7.776889379892721,"lng":98.32864432989271},"southwest":{"lat":7.774189720107278,"lng":98.32594467010728}}},"icon":"https://maps.gstatic.com/mapfiles/place_api/icons/v1/png_71/shopping-71.png","icon_background_color":"#4B96F3","icon_mask_base_uri":"https://maps.gstatic.com/mapfiles/place_api/icons/v2/shopping_pinlet","name":"Northlight Weed","opening_hours":{"open_now":false},"photos":[{"height":4032,"html_attributions":["<a href=\"https://maps.google.com/maps/contrib/103992163199248776973\">Dennis Nielsen</a>"],"photo_reference":"AfLeUgP88U-DGidoZa7NmzHVhJYDzXvlEjsmxpymJBh2d6tmEbNxhLMoc9dWpIRB_40c6ZNSGmOTDO5NQDj1qYofcq4mq3mpQgDQjDaRHWSxYGdpNB86OfksUmT2L6wnl_CajO78d_sXC5_yw9ZjGRpkRVXGS4uVYqZCR-Yeqz7vxHPEowE9","width":3024}],"place_id":"ChIJZa31_DUpUDARu_Mc_694CmU","rating":5,"reference":"ChIJZa31_DUpUDARu_Mc_694CmU","types":["store","point_of_interest","establishment"],"user_ratings_total":17}
{"business_status":"OPERATIONAL","formatted_address":"89/5 Sai Asia Road, Tambon Mae Sot, Mae Sot District, Tak 63110, Thailand","geometry":{"location":{"lat":16.7211749,"lng":98.5657207},"viewport":{"northeast":{"lat":16.72252362989272,"lng":98.56718367989272},"southwest":{"lat":16.71982397010728,"lng":98.56448402010727}}},"icon":"https://maps.gstatic.com/mapfiles/place_api/icons/v1/png_71/shopping-71.png","icon_background_color":"#4B96F3","icon_mask_base_uri":"https://maps.gstatic.com/mapfiles/place_api/icons/v2/shopping_pinlet","name":"Best Weed Bangkok | MAE SOT","opening_hours":{"open_now":false},"photos":[{"height":1080,"html_attributions":["<a href=\"https://maps.google.com/maps/contrib/101294226492299825187\">A Google User</a>"],"photo_reference":"AfLeUgPbSTJkfkjmuQSi4630zUWgb7dfznR2EK7PTeicPZ6LwhHr4JlHMSoVj9pDdpwHAnqDjXhlVN7dXokx9RA0XseXUgPVgrdrAkdvXXtWyEJqf_UralzF28boM5X6H6XcIs0r1b0vXzoJG3L9oO602so06bKWepby9CyzfZcdkZ05qbKU","width":1080}],"place_id":"ChIJ-4miwjuf3TARcjOf53stgFU","plus_code":{"compound_code":"PHC8+F7 Mae Sot, Mae Sot District, Tak, Thailand","global_code":"7M8WPHC8+F7"},"rating":5,"reference":"ChIJ-4miwjuf3TARcjOf53stgFU","types":["store","point_of_interest","establishment"],"user_ratings_total":2}
{"business_status":"OPERATIONAL","formatted_address":"79, 45 10, Ao Nang, Mueang Krabi District, Krabi 81180, Thailand","geometry":{"location":{"lat":8.042842499999999,"lng":98.8106595},"viewport":{"northeast":{"lat":8.04420222989272,"lng":98.81201597989273},"southwest":{"lat":8.041502570107276,"lng":98.80931632010729}}},"icon":"https://maps.gstatic.com/mapfiles/place_api/icons/v1/png_71/shopping-71.png","icon_background_color":"#4B96F3","icon_mask_base_uri":"https://maps.gstatic.com/mapfiles/place_api/icons/v2/shopping_pinlet","name":"The WeedLand","opening_hours":{"open_now":false},"photos":[{"height":1044,"html_attributions":["<a href=\"https://maps.google.com/maps/contrib/116808741268823351422\">A Google User</a>"],"photo_reference":"AfLeUgN3YWJCM6Typ4NVv2LDmj_oOWMy3N_mvrSypl9rzmU13nxD5D1UwCl36qgskMumcYEiG3qVaIfXUs0fgMHoM_5BGdwFXFMcdKZpxJ0MS_XsS0iFT3_ZbRBTlvn8VCYMeFaBIhd7PRXTImkMXPoD1p62lEyjQrmkLjc311IAGmLGaK0_","width":1568}],"place_id":"ChIJzTjWa6a_UTARzghFqiobM4g","plus_code":{"compound_code":"2RV6+47 Ao Nang, Mueang Krabi District, Krabi, Thailand","global_code":"6MWW2RV6+47"},"rating":4.7,"reference":"ChIJzTjWa6a_UTARzghFqiobM4g","types":["store","point_of_interest","establishment"],"user_ratings_total":31}
{"business_status":"OPERATIONAL","formatted_address":"39/590 หมู๋บ้านอารยา ซ.หัวหิน 102 Nong Kae, Hua Hin District, Prachuap Khiri Khan 77110, Thailand","geometry":{"location":{"lat":12.5412121,"lng":99.940811},"viewport":{"northeast":{"lat":12.54251322989272,"lng":99.9421674298927},"southwest":{"lat":12.53981357010728,"lng":99.93946777010727}}},"icon":"https://maps.gstatic.com/mapfiles/place_api/icons/v1/png_71/shopping-71.png","icon_background_color":"#4B96F3","icon_mask_base_uri":"https://maps.gstatic.com/mapfiles/place_api/icons/v2/shopping_pinlet","name":"ร้านกัญชา หัวหิน SWED CANNABIS STORE","opening_hours":{"open_now":false},"photos":[{"height":1108,"html_attributions":["<a href=\"https://maps.google.com/maps/contrib/114724822068523370291\">สุรศักดิ์ ล่องวิลัย</a>"],"photo_reference":"AfLeUgOo6buvTXomdbbXmEuZNjEJvIuVt8qPZot7wa4e7Ak4-KJrUl6TDl7fgHz29koWb0EJZ7hx7tFAcWuzrtqZJk-0WZ8sEgkNrrXSt13vGyugYtpTdu-czpYLo3JcQP76A5uz9UNbAUO7LmC_bD0fZFu7w0EYuMGL50b2tA8h11sDAWkS","width":1478}],"place_id":"ChIJpY-iCVSr_TAROi12BFxip4E","plus_code":{"compound_code":"GWRR+F8 Nong Kae, Hua Hin District, Prachuap Khiri Khan, Thailand","global_code":"7M4XGWRR+F8"},"rating":5,"reference":"ChIJpY-iCVSr_TAROi12BFxip4E","types":["store","point_of_interest","establishment"],"user_ratings_total":7}
{"business_status":"OPERATIONAL","formatted_address":"21, 23 Phra Athit Rd, Chana Songkhram, Phra Nakhon, Bangkok 10200, Thailand","geometry":{"location":{"lat":13.7618286,"lng":100.4933454},"viewport":{"northeast":{"lat":13.76321812989272,"lng":100.4946613798927},"southwest":{"lat":13.76051847010728,"lng":100.4919617201073}}},"icon":"https://maps.gstatic.com/mapfiles/place_api/icons/v1/png_71/shopping-71.png","icon_background_color":"#4B96F3","icon_mask_base_uri":"https://maps.gstatic.com/mapfiles/place_api/icons/v2/shopping_pinlet","name":"Stoner neighborhood Weed dispensary","opening_hours":{"open_now":false},"photos":[{"height":3072,"html_attributions":["<a href=\"https://maps.google.com/maps/contrib/107026982498715637226\">tate</a>"],"photo_reference":"AfLeUgPFMrCJWgo2W3I4-hVFQHuAGpMkMtbjMeOg_Xehu5fU6eh7bGPOWVQ0icSPREeWxDXcEsgFvf7o1HyRY-ZYY7nmFk97S7QAvDnQXYhXF_-QWH2-xygbuQUzwkT4yIKNMFejZQUxg4x8p2fLy6ZO71sOiT5tp6wtkVXMv2pDxuCBuw_m","width":4080}],"place_id":"ChIJM1POeU6Z4jARhH04aFgSm-U","plus_code":{"compound_code":"QF6V+P8 Bangkok, Thailand","global_code":"7P52QF6V+P8"},"rating":5,"reference":"ChIJM1POeU6Z4jARhH04aFgSm-U","types":["store","point_of_interest","establishment"],"user_ratings_total":96}
{"business_status":"OPERATIONAL","formatted_address":"Hua Hin, Hua Hin District, Prachuap Khiri Khan 77110, Thailand","geometry":{"location":{"lat":12.6256816,"lng":99.9510347},"viewport":{"northeast":{"lat":12.62708377989272,"lng":99.95239582989272},"southwest":{"lat":12.62438412010728,"lng":99.94969617010729}}},"icon":"https://maps.gstatic.com/mapfiles/place_api/icons/v1/png_71/shopping-71.png","icon_background_color":"#4B96F3","icon_mask_base_uri":"https://maps.gstatic.com/mapfiles/place_api/icons/v2/shopping_pinlet","name":"Cannabis shop","opening_hours":{"open_now":false},"photos":[{"height":1110,"html_attributions":["<a href=\"https://maps.google.com/maps/contrib/114921020403727711115\">A Google User</a>"],"photo_reference":"AfLeUgO87eBvnS8rfSizH7KMeIJ4y6LpMV2FqcuCQ7mJSC79cUlDMzKA6hXxhxyGs442k3XUK6ijxVT8C0BKLTSQQvg9ao0PMhgyoQ2FADcA27coFg_xQoDECce4u9jBzu3irDvXn0HfoYM1rt-aUi_wAsr10xdc3Zd-p3PKbaJvd11-uyEo","width":1474}],"place_id":"ChIJ4953WbEB_TARUYvw_yUoJTQ","plus_code":{"compound_code":"JXG2+7C Hua Hin, Hua Hin District, Prachuap Khiri Khan, Thailand","global_code":"7M4XJXG2+7C"},"rating":4.7,"reference":"ChIJ4953WbEB_TARUYvw_yUoJTQ","types":["convenience_store","store","food","point_of_interest","establishment"],"user_ratings_total":11}
{"business_status":"OPERATIONAL","formatted_address":"Taweewong, 124/11 So Patong Tower Pa Tong, Patong, Phuket 83150, Thailand","geometry":{"location":{"lat":7.891893899999999,"lng":98.2943856},"viewport":{"northeast":{"lat":7.893127179892722,"lng":98.29570797989271},"southwest":{"lat":7.890427520107278,"lng":98.29300832010728}}},"icon":"https://maps.gstatic.com/mapfiles/place_api/icons/v1/png_71/shopping-71.png","icon_background_color":"#4B96F3","icon_mask_base_uri":"https://maps.gstatic.com/mapfiles/place_api/icons/v2/shopping_pinlet","name":"WEEDLAND","opening_hours":{"open_now":true},"photos":[{"height":4032,"html_attributions":["<a href=\"https://maps.google.com/maps/contrib/113973610474268143142\">A Google User</a>"],"photo_reference":"AfLeUgP_nLtllRWPjmB8zgIe0mkevUe-SXdwUa_ksGZfly52ECkSZdr4SzzA0J1pwy0muunCaKxElibjElJwMFaeY07lSFNSzRZJUJKXd2-s4xGnAL-Eh-_emhLeRWPfUVWVyaNCVZhPjbSn3bWEy3GuR14oUC5oDIkynnkWx_HurHVT_H_e","width":3024}],"place_id":"ChIJHZHcS5YxUDAR7bRo0wHVC7g","plus_code":{"compound_code":"V7RV+QQ Pa Tong, Kathu District, Phuket, Thailand","global_code":"6MVWV7RV+QQ"},"rating":4.8,"reference":"ChIJHZHcS5YxUDAR7bRo0wHVC7g","types":["store","point_of_interest","establishment"],"user_ratings_total":24}
{"business_status":"OPERATIONAL","formatted_address":"106 Sukhumvit Road, Khwaeng Khlong Toei, Khlong Toei, Bangkok 10110, Thailand","geometry":{"location":{"lat":13.7418767,"lng":100.553136},"viewport":{"northeast":{"lat":13.74328357989272,"lng":100.5545131298927},"southwest":{"lat":13.74058392010728,"lng":100.5518134701073}}},"icon":"https://maps.gstatic.com/mapfiles/place_api/icons/v1/png_71/shopping-71.png","icon_background_color":"#4B96F3","icon_mask_base_uri":"https://maps.gstatic.com/mapfiles/place_api/icons/v2/shopping_pinlet","name":"Mary Jane Bangkok","opening_hours":{"open_now":true},"photos":[{"height":4032,"html_attributions":["<a href=\"https://maps.google.com/maps/contrib/118162358194506696544\">蔡, 沛剛</a>"],"photo_reference":"AfLeUgNTK11swGKAzY8wYkCD2zmXrXE2JeFbf4l9S99FGTDvz2UCgj1ftowbqmWOvoosz6vjZd2_k-h8eJAlX7BlDY6-G0-JZnohRKrnn_gEg-VBU4XJ7TFAX9rOgO76_Q9i226nkF7_huDnCoEKeVNyQT7qP9a-fbRhJpOZTDafk6u9R81j","width":3024}],"place_id":"ChIJeSWX16ef4jARjcGod7dDu0M","plus_code":{"compound_code":"PHR3+Q7 Bangkok, Thailand","global_code":"7P52PHR3+Q7"},"rating":4.8,"reference":"ChIJeSWX16ef4jARjcGod7dDu0M","types":["store","point_of_interest","establishment"],"user_ratings_total":46}
{"business_status":"OPERATIONAL","formatted_address":"21 420 sukhumvit soi5 Khlong Toei Nuea, Watthana, Bangkok 10110, Thailand","geometry":{"location":{"lat":13.7427719,"lng":100.5542249},"viewport":{"northeast":{"lat":13.74411672989272,"lng":100.5556112798927},"southwest":{"lat":13.74141707010728,"lng":100.5529116201073}}},"icon":"https://maps.gstatic.com/mapfiles/place_api/icons/v1/png_71/shopping-71.png","icon_background_color":"#4B96F3","icon_mask_base_uri":"https://maps.gstatic.com/mapfiles/place_api/icons/v2/shopping_pinlet","name":"Weed shop","opening_hours":{"open_now":true},"photos":[{"height":1108,"html_attributions":["<a href=\"https://maps.google.com/maps/contrib/108741132171845293182\">Apisit Chomphuthawat</a>"],"photo_reference":"AfLeUgN5iOWkiPcNi6LnubQ_HbdgIFyzulmaIOPzkKMkFhJiPVsFy5ig5HS_O8GMTUGpvsyBLSHZPL1nsbphC92PV2fqmgx8fO3fLrCDZlMBZ0mA2E7KyovzXkL-WuuWMeByWl7VYKrGcEelKQUN-1g74Sd34xr7pIbV6UGa--UhcDnMgJs","width":1477}],"place_id":"ChIJiz_t-Tif4jARLFQ7XhDlA28","plus_code":{"compound_code":"PHV3+4M Bangkok, Thailand","global_code":"7P52PHV3+4M"},"rating":4.1,"reference":"ChIJiz_t-Tif4jARLFQ7XhDlA28","types":["store","point_of_interest","establishment"],"user_ratings_total":15}
{"business_status":"OPERATIONAL","formatted_address":"193/5 Charunsanitwong Road Bangkun-Sri, Bangkok Noi, Bangkok 10700, Thailand","geometry":{"location":{"lat":13.7496304,"lng":100.4697437},"viewport":{"northeast":{"lat":13.75098332989272,"lng":100.4711279298927},"southwest":{"lat":13.74828367010728,"lng":100.4684282701073}}},"icon":"https://maps.gstatic.com/mapfiles/place_api/icons/v1/png_71/shopping-71.png","icon_background_color":"#4B96F3","icon_mask_base_uri":"https://maps.gstatic.com/mapfiles/place_api/icons/v2/shopping_pinlet","name":"WeedviewTH","opening_hours":{"open_now":false},"photos":[{"height":1440,"html_attributions":["<a href=\"https://maps.google.com/maps/contrib/117755352809398441795\">A Google User</a>"],"photo_reference":"AfLeUgNUc6cCSVKKFE-vot-rhiJXx-IY63i-WqPsLGmV3m_ViEAoIF13O2MomGQz1DixclECMmiYBmIM2RTPY-yNnrwCUM2ScP1gdPIgrHZFrHLVEvyRu_HCNlFclw0Xug01_I_CgykbvQGaa4JD0VrjfEdBe7Y5-4p9aQYVhWV-cyG_Fiw","width":1440}],"place_id":"ChIJTyeBp_qZ4jARTYFl70iXVng","plus_code":{"compound_code":"PFX9+VV Bangkok, Thailand","global_code":"7P52PFX9+VV"},"rating":5,"reference":"ChIJTyeBp_qZ4jARTYFl70iXVng","types":["cafe","food","store","point_of_interest","establishment"],"user_ratings_total":179,"seller":"Verified Seller"}
{"business_status":"OPERATIONAL","formatted_address":"Organic Village Siam Square Soi 5 392/27 & 28 1/F Rama I Rd, Pathum Wan, Bangkok 10330, Thailand","geometry":{"location":{"lat":13.7451974,"lng":100.5344819},"viewport":{"northeast":{"lat":13.74672807989272,"lng":100.5358622298927},"southwest":{"lat":13.74402842010728,"lng":100.5331625701073}}},"icon":"https://maps.gstatic.com/mapfiles/place_api/icons/v1/png_71/shopping-71.png","icon_background_color":"#4B96F3","icon_mask_base_uri":"https://maps.gstatic.com/mapfiles/place_api/icons/v2/shopping_pinlet","name":"Bloom","opening_hours":{"open_now":false},"photos":[{"height":3024,"html_attributions":["<a href=\"https://maps.google.com/maps/contrib/108476651154796156665\">Anh Tung VU</a>"],"photo_reference":"AfLeUgO8t1RP7AkANRByBdZtIClsEvaHo2RxlO054Ea0n24RzJC3gfFyKeNDHrsZKBvzKnkvfvB_sRbNg3dOQZOqdUJ8ZcdRS64MPsRdU6DMSru8Cz5MZJGQS6yP3O_7md3dTv2s7Ixz8jvePBs4gLfAF8e-kYfn1vPPnNQgG0mfXS6aziYQ","width":4032}],"place_id":"ChIJidghaXyf4jARlmJi2Jrz4cA","plus_code":{"compound_code":"PGWM+3Q Bangkok, Thailand","global_code":"7P52PGWM+3Q"},"rating":4.6,"reference":"ChIJidghaXyf4jARlmJi2Jrz4cA","types":["store","point_of_interest","establishment"],"user_ratings_total":55}
{"business_status":"OPERATIONAL","formatted_address":"Inside Juicy Bangkok Sugar Club Complex, 37 Soi Sukhumvit 11, Khlong Toei Nuea, Watthana, Bangkok 10110, Thailand","geometry":{"location":{"lat":13.7430402,"lng":100.5565558},"viewport":{"northeast":{"lat":13.74438822989272,"lng":100.5579187298927},"southwest":{"lat":13.74168857010728,"lng":100.5552190701073}}},"icon":"https://maps.gstatic.com/mapfiles/place_api/icons/v1/png_71/shopping-71.png","icon_background_color":"#4B96F3","icon_mask_base_uri":"https://maps.gstatic.com/mapfiles/place_api/icons/v2/shopping_pinlet","name":"Juicy Buds","opening_hours":{"open_now":false},"photos":[{"height":1664,"html_attributions":["<a href=\"https://maps.google.com/maps/contrib/105792554636527399626\">A Google User</a>"],"photo_reference":"AfLeUgOP7_BcmpbKp3xwkiw3xBxv3mCp1sorvcS0mEYlNmFSclCGxfUGtUIjiIDA2yM5TtgdSxjD2MhhDrRJZt3FwDOb4xucgjQHJHxPQeBH4eZ_9jhbGlNyuwdYnIsRuaxEoUcpdUpb3caBNT2eURjTx-UrvuxvOyKK7RRisfKGBQgZyzDz","width":1238}],"place_id":"ChIJT6OmWsKf4jARn5yYvWo-ij0","plus_code":{"compound_code":"PHV4+6J Bangkok, Thailand","global_code":"7P52PHV4+6J"},"rating":4.3,"reference":"ChIJT6OmWsKf4jARn5yYvWo-ij0","types":["store","point_of_interest","establishment"],"user_ratings_total":12}
{"business_status":"OPERATIONAL","formatted_address":"2/17-19 Sukhumvit 24 Alley, Khlong Tan, Khlong Toei, Bangkok 10110, Thailand","geometry":{"location":{"lat":13.7298812,"lng":100.569313},"viewport":{"northeast":{"lat":13.73119882989272,"lng":100.5707415298927},"southwest":{"lat":13.72849917010728,"lng":100.5680418701073}}},"icon":"https://maps.gstatic.com/mapfiles/place_api/icons/v1/png_71/shopping-71.png","icon_background_color":"#4B96F3","icon_mask_base_uri":"https://maps.gstatic.com/mapfiles/place_api/icons/v2/shopping_pinlet","name":"All Time High Weed Dispensary","opening_hours":{"open_now":false},"photos":[{"height":4032,"html_attributions":["<a href=\"https://maps.google.com/maps/contrib/117349868525848919460\">A Google User</a>"],"photo_reference":"AfLeUgNnYj5DpoeyFeuGJuvWXCgG6YkRcalBxIKl6VPHYN3xE9aWv6lBeLIJu28JYfVQPA4CpzA830m-SGHpmEd982OcG6LrnTTgwkn4-t22-S0CdWs8vQ_oLAfnQbs7-kE2aq0f7VIvk2kJQ5p4a92R75RArHjoTejj6LEHAgT3s5BmW1HX","width":3024}],"place_id":"ChIJw_T-zcWf4jAROypQtBftUtk","plus_code":{"compound_code":"PHH9+XP Bangkok, Thailand","global_code":"7P52PHH9+XP"},"rating":4.9,"reference":"ChIJw_T-zcWf4jAROypQtBftUtk","types":["store","point_of_interest","establishment"],"user_ratings_total":121}
{"business_status":"OPERATIONAL","formatted_address":"423 425 Sukhumvit Road, Khlong Toei Nuea, Watthana, Bangkok 10110, Thailand","geometry":{"location":{"lat":13.7359706,"lng":100.5621881},"viewport":{"northeast":{"lat":13.73728912989272,"lng":100.5635150798927},"southwest":{"lat":13.73458947010728,"lng":100.5608154201073}}},"icon":"https://maps.gstatic.com/mapfiles/place_api/icons/v1/png_71/shopping-71.png","icon_background_color":"#4B96F3","icon_mask_base_uri":"https://maps.gstatic.com/mapfiles/place_api/icons/v2/shopping_pinlet","name":"Chopaka.Shop","opening_hours":{"open_now":false},"photos":[{"height":4032,"html_attributions":["<a href=\"https://maps.google.com/maps/contrib/117096376290663230426\">Frédéric Alidor</a>"],"photo_reference":"AfLeUgPwsiLkpuCRDHUDQrumQfQzVwwyCAllWFNFD71H3HNpuD4hVYV5XsUTG43AaOjLGX4Q9wfCqegtf0oXge6kGZ-Oa-CTBDUXwg01bERD0EY85_pzInd-5RqxSirtrB2HDnvzL8L27fconjuSq19PBGJnibmq5zqxDahbnrg4T11zZ14","width":3024}],"place_id":"ChIJhUAb8NOf4jARMLCIKylSjuc","plus_code":{"compound_code":"PHP6+9V Bangkok, Thailand","global_code":"7P52PHP6+9V"},"rating":4.3,"reference":"ChIJhUAb8NOf4jARMLCIKylSjuc","types":["point_of_interest","store","establishment"],"user_ratings_total":38}
{"business_status":"OPERATIONAL","formatted_address":"QF5X+FC5, 265 Khaosan Rd, Talat Yot, Phra Nakhon, Bangkok 10200, Thailand","geometry":{"location":{"lat":13.7584473,"lng":100.4984906},"viewport":{"northeast":{"lat":13.75976092989272,"lng":100.4998195798927},"southwest":{"lat":13.75706127010728,"lng":100.4971199201073}}},"icon":"https://maps.gstatic.com/mapfiles/place_api/icons/v1/png_71/shopping-71.png","icon_background_color":"#4B96F3","icon_mask_base_uri":"https://maps.gstatic.com/mapfiles/place_api/icons/v2/shopping_pinlet","name":"Plantopia - Weed City","opening_hours":{"open_now":false},"photos":[{"height":4000,"html_attributions":["<a href=\"https://maps.google.com/maps/contrib/106676678127216375080\">Anna Tiggr</a>"],"photo_reference":"AfLeUgO7ttmzIKm-hWYVrAU_vs4p-A9M1Oky3ZSccZcbqz2IHUymMLyngKpXiw-x4PZoNDnnM7nHxfJ_jyzeN9LH-cdJIMSDZD0sLaHrEywGnUALwfZe7qlFDoyOOh_MeZ0ezmOKykmPsk8P4EShOpCaoy1G1GxvuG11Ak4iL2qiXz7sY6Dv","width":3000}],"place_id":"ChIJe40ynEiZ4jAR9TOcZuPKie4","rating":4.9,"reference":"ChIJe40ynEiZ4jAR9TOcZuPKie4","types":["store","point_of_interest","establishment"],"user_ratings_total":22}
{"business_status":"OPERATIONAL","formatted_address":"13, 3 Sukhumvit 65, Phra Khanong Nuea, Watthana, Bangkok 10110, Thailand","geometry":{"location":{"lat":13.7188561,"lng":100.5886108},"viewport":{"northeast":{"lat":13.72020582989272,"lng":100.5899601298927},"southwest":{"lat":13.71750617010728,"lng":100.5872604701073}}},"icon":"https://maps.gstatic.com/mapfiles/place_api/icons/v1/png_71/shopping-71.png","icon_background_color":"#4B96F3","icon_mask_base_uri":"https://maps.gstatic.com/mapfiles/place_api/icons/v2/shopping_pinlet","name":"Fat Buds Weed Shop​​ Ekkamai","opening_hours":{"open_now":false},"photos":[{"height":3648,"html_attributions":["<a href=\"https://maps.google.com/maps/contrib/101988063275339812016\">A Google User</a>"],"photo_reference":"AfLeUgOq05CqIwVX9_toU3R9UUdyUK9ChakgCQjKiL8tZjgEzzlVScS6kXhXaRPkItm-irLxtvwn43W-toFxDZXyjyu0hqBN5Ngry95ZzCPWAGi2Oqy10u_4sj54qOl-lBbCV80lnjlGl5FnvppMZb-6p7d1PnLUKevAYA5qeYu2t2Kz1CRv","width":2736}],"place_id":"ChIJF6ZCxj2f4jARry9ErcaIPco","plus_code":{"compound_code":"PH9Q+GC Bangkok, Thailand","global_code":"7P52PH9Q+GC"},"rating":4.9,"reference":"ChIJF6ZCxj2f4jARry9ErcaIPco","types":["store","point_of_interest","establishment"],"user_ratings_total":111}
{"business_status":"OPERATIONAL","formatted_address":"23, 1 Sukhumvit 4 Alley, Khwaeng Khlong Toei, Khlong Toei, Bangkok 10110, Thailand","geometry":{"location":{"lat":13.7399244,"lng":100.5531022},"viewport":{"northeast":{"lat":13.74127607989272,"lng":100.5544116298927},"southwest":{"lat":13.73857642010728,"lng":100.5517119701073}}},"icon":"https://maps.gstatic.com/mapfiles/place_api/icons/v1/png_71/shopping-71.png","icon_background_color":"#4B96F3","icon_mask_base_uri":"https://maps.gstatic.com/mapfiles/place_api/icons/v2/shopping_pinlet","name":"HighHerb Club - Cannabis Dispensary","opening_hours":{"open_now":true},"photos":[{"height":3024,"html_attributions":["<a href=\"https://maps.google.com/maps/contrib/111186739120512833990\">A Google User</a>"],"photo_reference":"AfLeUgPF2MkHbNh3SjnoSLaGMGFQ-Vt_gQzvtHuNkud2M1JNUIlusTj0o-AV_xBRb71Y_chUPghXApQUvXFy_XAAhqBKSXJCVSs-gcspUoCDdsRtAoUhTGRAt8HyvtBxOldI8lC67wi0mqMYp0KmUCvPs2s5M4IUyeMFp3mctUC5FM4XPFm6","width":4032}],"place_id":"ChIJC4x05zef4jARrTDAIGiqBps","plus_code":{"compound_code":"PHQ3+X6 Bangkok, Thailand","global_code":"7P52PHQ3+X6"},"rating":5,"reference":"ChIJC4x05zef4jARrTDAIGiqBps","types":["store","point_of_interest","establishment"],"user_ratings_total":151}
{"business_status":"OPERATIONAL","formatted_address":"52, 3 สุขุมวิท 42 Phra Khanong, Klongtoey, Bangkok 10110, Thailand","geometry":{"location":{"lat":13.7133504,"lng":100.5841071},"viewport":{"northeast":{"lat":13.71469657989272,"lng":100.5854894798927},"southwest":{"lat":13.71199692010728,"lng":100.5827898201073}}},"icon":"https://maps.gstatic.com/mapfiles/place_api/icons/v1/png_71/shopping-71.png","icon_background_color":"#4B96F3","icon_mask_base_uri":"https://maps.gstatic.com/mapfiles/place_api/icons/v2/shopping_pinlet","name":"Sukhumweed","opening_hours":{"open_now":false},"photos":[{"height":4032,"html_attributions":["<a href=\"https://maps.google.com/maps/contrib/106285869903093729123\">A Google User</a>"],"photo_reference":"AfLeUgOua1P25uXf4oG00t5BOjoYrdHD8XjrDauxiVEisMioEJbzlzt3kYYYYCPnt3YnpoKM75aJzXH_a_r4VWxkofS5tVK7zYr3tDx-ypAvw2XXm6MGkBoFEIssVXU07smWpNAZ-4NnQ3XBT54w54h_vg5d2nBtY7QfeG5PysJbsbkUmZ4E","width":3024}],"place_id":"ChIJ8W5ikSif4jARlFSX4m78J_s","plus_code":{"compound_code":"PH7M+8J Bangkok, Thailand","global_code":"7P52PH7M+8J"},"rating":4.6,"reference":"ChIJ8W5ikSif4jARlFSX4m78J_s","types":["store","point_of_interest","establishment"],"user_ratings_total":58}
{"business_status":"OPERATIONAL","formatted_address":"1106 Sukhumvit Road, Phra Khanong, Khlong Toei, Bangkok 10110, Thailand","geometry":{"location":{"lat":13.7143241,"lng":100.591798},"viewport":{"northeast":{"lat":13.71580367989272,"lng":100.5932453298927},"southwest":{"lat":13.71310402010728,"lng":100.5905456701073}}},"icon":"https://maps.gstatic.com/mapfiles/place_api/icons/v1/png_71/shopping-71.png","icon_background_color":"#4B96F3","icon_mask_base_uri":"https://maps.gstatic.com/mapfiles/place_api/icons/v2/shopping_pinlet","name":"WEED Express Phrakanong - Cannabis Dispensary","opening_hours":{"open_now":false},"photos":[{"height":4032,"html_attributions":["<a href=\"https://maps.google.com/maps/contrib/109966832690071527799\">馬郁凌</a>"],"photo_reference":"AfLeUgM9Ko6jT7yrcBBHnUBrDLuPoAqQWPt-wGR38OCXpB3G-h_sNnZt-rfJec-s4_nL7X9Xe3SU-aOhQyhTBDL_oCsnpEd2oNtBWkpZyWQxZmnGrd9vmKjnxGV21MQVuSpBuId7boewYahEL2v-6UPB9CG8oTUzDyXHk4WsSFyleONVY0Vn","width":3024}],"place_id":"ChIJ86jj1fWf4jARwP3HeZUNLzM","plus_code":{"compound_code":"PH7R+PP Bangkok, Thailand","global_code":"7P52PH7R+PP"},"rating":5,"reference":"ChIJ86jj1fWf4jARwP3HeZUNLzM","types":["store","point_of_interest","establishment"],"user_ratings_total":190}
{"business_status":"OPERATIONAL","formatted_address":"1 Soi Sukhumvit 22, Klongton, Khlong Toei, Bangkok 10110, Thailand","geometry":{"location":{"lat":13.7330112,"lng":100.5654967},"viewport":{"northeast":{"lat":13.73441652989272,"lng":100.5668742298927},"southwest":{"lat":13.73171687010728,"lng":100.5641745701073}}},"icon":"https://maps.gstatic.com/mapfiles/place_api/icons/v1/png_71/shopping-71.png","icon_background_color":"#4B96F3","icon_mask_base_uri":"https://maps.gstatic.com/mapfiles/place_api/icons/v2/shopping_pinlet","name":"Kush House","opening_hours":{"open_now":false},"photos":[{"height":3000,"html_attributions":["<a href=\"https://maps.google.com/maps/contrib/108682123920287338589\">toby newbold</a>"],"photo_reference":"AfLeUgNcJpvWSvNa3kj5DdLrnsDwtmhrjr0S9hEX7DjnJk9HMIe3dpX8pPZY6Z8XGRt2Ig3ylCtBimIYR5P_jbh8U1xOXW7G1Cwv8b9Bguf8ECmkDKoa3ArbDreOK_Srw0EdjhZVVoOlHknO7fNugsvt2Pvb8ZUKDsVVpbds4TBq5JyoZW35","width":4000}],"place_id":"ChIJy7m6C9qf4jAROTUp7ihpnIY","plus_code":{"compound_code":"PHM8+65 Bangkok, Thailand","global_code":"7P52PHM8+65"},"rating":4.9,"reference":"ChIJy7m6C9qf4jAROTUp7ihpnIY","types":["store","point_of_interest","establishment"],"user_ratings_total":127}
{"business_status":"OPERATIONAL","formatted_address":"3rd Floor, Maneeya Center (BTS Chidlom Station Exit-2 )Sky walk to Central World, Lumphini, Patumwan, Bangkok 10330, Thailand","geometry":{"location":{"lat":13.7439985,"lng":100.5420293},"viewport":{"northeast":{"lat":13.74527337989272,"lng":100.5434749298927},"southwest":{"lat":13.74257372010728,"lng":100.5407752701073}}},"icon":"https://maps.gstatic.com/mapfiles/place_api/icons/v1/png_71/shopping-71.png","icon_background_color":"#4B96F3","icon_mask_base_uri":"https://maps.gstatic.com/mapfiles/place_api/icons/v2/shopping_pinlet","name":"Bangkok Cannabis Souvenir 醫療和娛樂大麻專賣店","opening_hours":{"open_now":false},"photos":[{"height":4032,"html_attributions":["<a href=\"https://maps.google.com/maps/contrib/109593217324934414510\">A Google User</a>"],"photo_reference":"AfLeUgNmzzNL3WoLDmk2uY0-xnBqZQZTUBugX1cANSuP3Tne9INgKLjwkI_Ti4F55Quvo-VuGRjLu0IgWCGtS74jsrjDOuGmkISiGHrAwubo8uh0IIKVmD_odL8VJreg9LxoFD1CnDaRbTA764bDkvvQVNjc5XqMzE68nh7H8X2xyqYUuui3","width":3024}],"place_id":"ChIJ-RuKN7Cf4jARLAWpMBLE6Oo","plus_code":{"compound_code":"PGVR+HR Bangkok, Thailand","global_code":"7P52PGVR+HR"},"rating":4.9,"reference":"ChIJ-RuKN7Cf4jARLAWpMBLE6Oo","types":["store","point_of_interest","establishment"],"user_ratings_total":206}
{"business_status":"OPERATIONAL","formatted_address":"16 Ekkamai 10 Alley, Lane 2, Phra Khanong Nuea, Watthana, Bangkok 10110, Thailand","geometry":{"location":{"lat":13.7271191,"lng":100.5874668},"viewport":{"northeast":{"lat":13.72847642989272,"lng":100.5887314298927},"southwest":{"lat":13.72577677010728,"lng":100.5860317701073}}},"icon":"https://maps.gstatic.com/mapfiles/place_api/icons/v1/png_71/shopping-71.png","icon_background_color":"#4B96F3","icon_mask_base_uri":"https://maps.gstatic.com/mapfiles/place_api/icons/v2/shopping_pinlet","name":"CANNABIS BANGKOK SUDYOD GANJA","opening_hours":{"open_now":false},"photos":[{"height":4032,"html_attributions":["<a href=\"https://maps.google.com/maps/contrib/116022699126229472522\">A Google User</a>"],"photo_reference":"AfLeUgNPJkHYO99seAHiiGluKD8RHmBEcCc4XN_X-jFDLKLRFwJ_upm9PA0YSsm03qkdN7IritkBrzodnrjLdmt9AId7DK0OZS0MzOCTWnHOT9uHbE9Jyq0s4A0Yker93Fsxs2xs6HF9PvYYX6hL9Oubked-UPRn4VOsjKwj7n7R1xdGMlwL","width":3024}],"place_id":"ChIJv1hLAhWf4jARDTZFoDI0AtU","plus_code":{"compound_code":"PHGP+RX Bangkok, Thailand","global_code":"7P52PHGP+RX"},"rating":5,"reference":"ChIJv1hLAhWf4jARDTZFoDI0AtU","types":["store","point_of_interest","establishment"],"user_ratings_total":10}
{"business_status":"OPERATIONAL","formatted_address":"32/9 ถนน สุขุมวิท 21 Khlong Toei Nuea, Watthana, Khlong Toei, Bangkok 10110, Thailand","geometry":{"location":{"lat":13.7404408,"lng":100.5623118},"viewport":{"northeast":{"lat":13.74176782989272,"lng":100.5636579298927},"southwest":{"lat":13.73906817010728,"lng":100.5609582701073}}},"icon":"https://maps.gstatic.com/mapfiles/place_api/icons/v1/png_71/shopping-71.png","icon_background_color":"#4B96F3","icon_mask_base_uri":"https://maps.gstatic.com/mapfiles/place_api/icons/v2/shopping_pinlet","name":"Four Twenty Dispensary - Asoke","opening_hours":{"open_now":false},"photos":[{"height":4032,"html_attributions":["<a href=\"https://maps.google.com/maps/contrib/102720346279631875907\">Natalee Adams</a>"],"photo_reference":"AfLeUgMgsdxWu8tHi1Q0mkemdFLtiAtQD7qr0rgEhKOU06506aGyppmI1HvURlISTpMktaInJlby0F9XZhxESwZuTOz4FtR86BrMxaLS-CRNh2uipqcxTU-JXYMPoqRcH4yk6oyTMJ0AAWkrSkzEcR7BciLDbiqla61a9k45c38YRwhwC-sh","width":3024}],"place_id":"ChIJgeWs5TKf4jARrXcca2v5IEE","plus_code":{"compound_code":"PHR6+5W Bangkok, Thailand","global_code":"7P52PHR6+5W"},"rating":5,"reference":"ChIJgeWs5TKf4jARrXcca2v5IEE","types":["store","point_of_interest","establishment"],"user_ratings_total":359}
{"business_status":"OPERATIONAL","formatted_address":"BTS Nana 164 Sukhumvit Road, Khlong Toei, Bangkok 10110, Thailand","geometry":{"location":{"lat":13.7399514,"lng":100.5559268},"viewport":{"northeast":{"lat":13.74136187989272,"lng":100.5573181798927},"southwest":{"lat":13.73866222010728,"lng":100.5546185201073}}},"icon":"https://maps.gstatic.com/mapfiles/place_api/icons/v1/png_71/shopping-71.png","icon_background_color":"#4B96F3","icon_mask_base_uri":"https://maps.gstatic.com/mapfiles/place_api/icons/v2/shopping_pinlet","name":"TOPSHELF Cannabis Dispensary","opening_hours":{"open_now":false},"photos":[{"height":3000,"html_attributions":["<a href=\"https://maps.google.com/maps/contrib/104683953386704610584\">A Google User</a>"],"photo_reference":"AfLeUgOAiKfj21k6CfvJ8qoufQTUTlyi7cp8uaCYN2Bwz--eObW1zSBHEMUAM5qWZHkKMu0_sy9p7rTkWpWHfcZjitHo8EgBcGqeHVbVH6oxd0-LQ0xvh2Zvy-7nXAcVM2Z_S2fYvoZTzppv4RmhmgKTtk-ZfCSYXKICEC5W3--_110FzOYA","width":4000}],"place_id":"ChIJ2a87r8Cf4jARhatuuFecu4o","plus_code":{"compound_code":"PHQ4+X9 Bangkok, Thailand","global_code":"7P52PHQ4+X9"},"rating":4.9,"reference":"ChIJ2a87r8Cf4jARhatuuFecu4o","types":["store","point_of_interest","establishment"],"user_ratings_total":316}
{"business_status":"OPERATIONAL","formatted_address":"C78 Phra Khanong Nuea, Watthana, Bangkok 10110, Thailand","geometry":{"location":{"lat":13.7149185,"lng":100.5938827},"viewport":{"northeast":{"lat":13.71625172989272,"lng":100.5952496298927},"southwest":{"lat":13.71355207010727,"lng":100.5925499701073}}},"icon":"https://maps.gstatic.com/mapfiles/place_api/icons/v1/png_71/shopping-71.png","icon_background_color":"#4B96F3","icon_mask_base_uri":"https://maps.gstatic.com/mapfiles/place_api/icons/v2/shopping_pinlet","name":"Kaloy Cannabis Dispensary","opening_hours":{"open_now":false},"photos":[{"height":960,"html_attributions":["<a href=\"https://maps.google.com/maps/contrib/105222827994445003671\">A Google User</a>"],"photo_reference":"AfLeUgPO8xGjj5YDhZTg-9OjrALKAQk0dl8MqKHZlhnNq-mFkw8bALn66REes6sNwqiEOQOb2Lqc18gUca8egKwlOqhl8ab0QtjN4KZhT-pS3nL5VlAeT6tpUKbZ_YJfMYMXI9WWLkmLwBt8zz5G4NNpplNuwuzE4nHXWEWGvs5pSfAM1Rvt","width":1707}],"place_id":"ChIJ3SKO70uf4jARvhzkZZN9jZM","plus_code":{"compound_code":"PH7V+XH Bangkok, Thailand","global_code":"7P52PH7V+XH"},"rating":5,"reference":"ChIJ3SKO70uf4jARvhzkZZN9jZM","types":["point_of_interest","store","establishment"],"user_ratings_total":10}
{"business_status":"OPERATIONAL","formatted_address":"The Residence, 924 Sukhumvit 24 Alley, Khlong Tan, Khlong Toei, Bangkok 10110, Thailand","geometry":{"location":{"lat":13.7232486,"lng":100.5665417},"viewport":{"northeast":{"lat":13.72458742989272,"lng":100.5679269798927},"southwest":{"lat":13.72188777010728,"lng":100.5652273201073}}},"icon":"https://maps.gstatic.com/mapfiles/place_api/icons/v1/png_71/shopping-71.png","icon_background_color":"#4B96F3","icon_mask_base_uri":"https://maps.gstatic.com/mapfiles/place_api/icons/v2/shopping_pinlet","name":"Green Day Dispensary (Sukhumvit 24)","opening_hours":{"open_now":false},